station_id,lat,lon,name
00826099999,0.0,0.0,WXPOD8270
00826899999,32.95,65.5666666,"WXPOD8278, AF"
00830799999,0.0,0.0,"WXPOD 8318, AF"
01001099999,70.9333333,-8.6666667,"JAN MAYEN NOR NAVY, NO"
01001499999,59.791925,5.34085,"SORSTOKKEN, NO"
01002099999,80.05,16.25,"VERLEGENHUKEN, NO"
01003099999,77.0,15.5,"HORNSUND, NO"
01006099999,78.25,22.8166666,"EDGEOYA, NO"
01007099999,78.9166666,11.9333333,"NY ALESUND, SV"
01008099999,78.246111,15.465556,"LONGYEAR, SV"
01010099999,69.2925,16.144167,"ANDOYA, NO"
01014099999,69.2333333,17.9,"SENJA LAUKHELLA, NO"
01015099999,69.6,17.8333333,"HEKKINGEN FYR, NO"
01016099999,78.9333333,28.9,"KONGSOYA, NO"
01017099999,77.6833333,14.7833333,"AKSELOYA, SV"
01019099999,77.5166666,20.8166666,"SVARTTANGEN, NO"
01020099999,76.4833333,16.55,"SORKAPPOYA, SV"
01023099999,69.055758,18.540356,"BARDUFOSS, NO"
01023199999,64.35,7.8,"DRAUGEN, NO"
01025099999,69.683333,18.918919,"TROMSO, NO"
01026099999,69.65,18.9333333,"TROMSO, NO"
01028099999,74.5166667,19.0166667,"BJORNOYA ISLAND, NO"
01033099999,70.25,19.5,"TORSVAG FYR, NO"
01037099999,69.3833333,20.2833333,"SKIBOTN 2, NO"
01043099999,70.4166666,22.8166666,"ROGNSUNDET, NO"
01044099999,70.486675,22.139744,"HASVIK, NO"
01045099999,69.8333333,21.8833333,"NORDSTRAUM I KVAENANGEN, NO"
01046099999,69.786839,20.959444,"SORKJOSEN, NO"
01047099999,69.0166667,23.0666667,"KAUTOKEINO II, NO"
01049099999,69.976111,23.371667,"ALTA, NO"
01052099999,70.6833333,23.6833333,"HAMMERFEST AIRPORT, NO"
01055099999,71.1,23.9833333,"FRUHOLMEN FYR, NO"
01057099999,69.3666666,24.4333333,"CUOVDDATMOHKKI, NO"
01058099999,69.5666666,23.5333333,"SUOLOVUOPMI LULIT, NO"
01059099999,70.068814,24.973489,"BANAK, NO"
01062099999,76.5,25.0666667,"HOPEN ISLAND, NO"
01065099999,69.4666666,25.5166666,"KARASJOK, NO"
01068099999,71.0166667,25.9833333,"HONNINGSVAG VALAN, NO"
01074099999,71.0333333,27.8333333,"MEHAMN, NO"
01075099999,70.4,28.2,"RUSTEFJELBMA, NO"
01078099999,71.1,28.2333333,"SLETTNES FYR, NO"
01083099999,70.8666667,29.0333333,"BERLEVAG, NO"
01086099999,70.600256,29.692678,"BATSFJORD, NO"
01088099999,70.0666667,29.85,"VADSO, NO"
01088299999,62.578411,11.342347,"ROROS, NO"
01088499999,59.185,9.566944,"GEITERYGGEN, NO"
01088699999,58.3666666,1.9,"SLEIPNER A OIL PLATFORM, NO"
01089099999,69.725611,29.893011,"HOYBUKTMOEN, NO"
01092099999,70.7,30.0833333,"MAKKAUR FYR, NO"
01098099999,70.3666666,31.1,"VARDO, NO"
01099099999,70.355392,31.044889,"VARDO AIRPORT SVARTNES, NO"
01102099999,65.2,11.0,"SKLINNA FYR, NO"
01102599999,65.3333333,7.3166667,"HEIDRUN, NO"
01105099999,68.3666666,15.95,"ROTVAER, NO"
01107099999,67.5166667,12.1,"ROST NOR AFB, NO"
01108099999,65.7,11.85,"VEGA VALLSJO, NO"
01112099999,65.461111,12.2175,"BRONNOY, NO"
01114099999,66.9,13.6333333,"REIPA, NO"
01115099999,66.7666666,12.4833333,"MYKEN, NO"
01116099999,65.95,12.4666666,"STOKKA, NO"
01121099999,66.3666666,12.6166666,"SOLVAER III, NO"
01122099999,65.783997,13.214914,"KJAERSTAD, NO"
01124099999,64.1666666,12.4666666,"SNASA, NO"
01132099999,65.1666666,13.3666666,"MAJAVATN V, NO"
01141099999,68.15,13.6166667,"LEKNES, NO"
01143099999,68.05,16.0833333,"DRAG AJLUOKTA, NO"
01144099999,67.4,13.8833333,"HELLIGVAER II, NO"
01147099999,65.8333333,14.1833333,"VARNTRESK, NO"
01150099999,66.5,14.95,"HJARTASEN, NO"
01151099999,66.3666666,14.3,"MOIRANA, NO"
01152099999,67.269167,14.365278,"BODO, NO"
01156099999,68.6,14.4333333,"BO I VESTERALEN, NO"
01158099999,67.1666666,15.4833333,"SETSA, NO"
01160099999,68.15,14.65,"SKROVA FYR, NO"
01161099999,68.25,14.6666667,"SVOLVAER HELLE, NO"
01162099999,68.5833333,15.0166667,"STORKMARKNES SKAGEN, NO"
01167099999,68.7,15.4166666,"SORTLAND, NO"
01169099999,66.9333333,15.3166666,"SALTDAL NORDNES, NO"
01180099999,68.8,16.5333333,"HARSTAD, NO"
01183099999,68.4913,16.678108,"EVENES, NO"
01193099999,68.4666667,17.5,"NARVIK III FRAMNES, NO"
01198099999,68.7833333,19.7,"DIVIDALEN II, NO"
01199099999,68.75,23.5333333,"SIHCCAJAVRI, NO"
01203099999,62.0333333,4.9833333,"KRAKENES, NO"
01205099999,62.3333333,5.2666666,"SVINOY LH, NO"
01207099999,62.1,5.5833333,"FISKABYGD, NO"
01209099999,62.1833333,6.0666667,"ORSTA VOLDA HOVDEN, NO"
01210099999,62.560372,6.110164,"VIGRA, NO"
01212099999,62.8666666,6.5333333,"ONA II, NO"
01214099999,62.65,6.7666666,"REKDAL, NO"
01217099999,62.744722,7.2625,"ARO, NO"
01218099999,62.2333333,7.4166666,"TAFJORD, NO"
01220099999,62.45,7.7666666,"MANNEN, NO"
01221099999,63.05,9.0833333,"TAGDALEN, NO"
01223099999,63.111781,7.824522,"KVERNBERGET, NO"
01224099999,62.4666666,6.2166666,"AALESUND, NO"
01225099999,63.5166666,7.95,"VEIHOLMEN, NO"
01228099999,63.85,8.4666666,"SULA, NO"
01230099999,62.2666666,8.2,"BJORLI, NO"
01232099999,62.45,7.85,"VINJEORA II, NO"
01233099999,62.0833333,9.1166666,"DOMBAAS, NO"
01234099999,63.3166666,9.85,"ORKDAL THAMSHAMN, NO"
01236099999,62.1,9.05,"KJOREMSGRENDE, NO"
01238099999,62.1166666,9.2833333,"FOKSTUA II, NO"
01239099999,62.2166666,9.55,"HJERKINN II, NO"
01240099999,64.1666666,9.4,"HALTEN FYR, NO"
01241099999,63.698908,9.604003,"ORLAND, NO"
01242099999,63.9666666,10.2166666,"AFJORD II, NO"
01245099999,62.6,9.6666666,"OPPDAL SETER, NO"
01253099999,62.95,10.1833333,"SOKNEDAL, NO"
01254099999,62.9833333,10.55,"KOTSOY, NO"
01257099999,63.4166666,10.45,"TRONDHEIM VOLL, NO"
01259099999,64.4,10.45,"BUHOLMRASA LH, NO"
01262099999,64.8,10.55,"NORDOYAN FYR, NO"
01265099999,62.2666666,10.7333333,"TYNSET HANSMOEN, NO"
01271099999,63.457556,10.939872,"VAERNES, NO"
01273099999,63.2333333,11.0166666,"SELBU, NO"
01277099999,64.0166666,11.45,"STEINKJER, NO"
01278099999,63.7833333,11.6833333,"VERDAL REPPE, NO"
01281099999,64.7333333,12.85,"NAMSSKOGAN, NO"
01282099999,64.85,11.2333333,"RORVIK RYUM, NO"
01287099999,62.6833333,11.8166666,"SOLENDET, NO"
01288099999,62.5666666,11.3833333,"ROROS, NO"
01290099999,64.4666667,11.5833333,"NAMSOS AIRPORT, NO"
01291099999,64.5333333,12.3833333,"GARTLAND, NO"
01293099999,63.4166666,11.7333333,"MERAKER EGGE, NO"
01298099999,64.45,13.7166666,"NORDLI HOLAND, NO"
01300099999,61.2,2.2666666,"GULLFAKS C, NO"
01300599999,61.25,1.85,"STATFJORD OIL PLATFORM HELIPORT, FO"
01304099999,61.5666666,4.6833333,"YTTEROYANE FYR, NO"
01307099999,60.75,4.7166666,"FEDJE, NO"
01310099999,61.583611,5.024722,"FLORO, NO"
01311099999,60.293386,5.218142,"FLESLAND, NO"
01315099999,60.6333333,6.1,"EVANGER, NO"
01317099999,60.3833333,5.3333333,"BERGEN FLORIDA, NO"
01318099999,61.7833333,6.1833333,"SANDANE, NO"
01319099999,61.0333333,5.3833333,"TAKLE, NO"
01320099999,61.8333333,6.1166667,"SANDANE ANDA, NO"
01321099999,61.9,6.55,"STRYN, NO"
01322099999,61.4666666,5.9166666,"FORDE TEFRE, NO"
01323099999,61.392503,5.764167,"BRINGELAND, NO"
01326099999,60.85,5.9833333,"MODALEN III, NO"
01327099999,60.3833333,5.9666666,"KVAMSKOGEN JONSHOGDI, NO"
01329099999,60.35,6.2666666,"KVAMSOY, NO"
01332099999,61.43,6.77,"FJAERLAND BREMUSEET, NO"
01337099999,60.6333333,6.4333333,"VOSSEVANGEN, NO"
01338099999,61.1666666,6.65,"VANGSNES, NO"
01340099999,60.42,7.28,"FET I EIDFJORD, NO"
01344099999,60.7,6.95,"MJOLFJELL, NO"
01347099999,61.156111,7.136614,"SOGNDAL HAUKASEN, NO"
01350099999,60.6,7.5333333,"FINSEVATN, NO"
01352099999,60.1833333,7.4833333,"SANDHAUG, NO"
01355099999,61.1,7.5,"LAERDAL IV, NO"
01359099999,60.5333333,8.2,"GEILO OLDEBRATEN, NO"
01360099999,61.9,7.9,"BRATA SLETTOM, NO"
01361099999,62.0166666,7.6666666,"GROTLI III, NO"
01364099999,61.1833333,8.1166666,"FILEFJELL, NO"
01365099999,61.2505556,8.9166666,"BEITOSTOLEN II, NO"
01366099999,61.5666666,8.0,"SOGNEFJELL, NO"
01367099999,60.9833333,9.2166666,"FAGERNES, NO"
01368099999,61.015556,9.288056,"LEIRIN, NO"
01369099999,60.9166666,9.2833333,"ABJORSBRATEN, NO"
01370099999,61.5166666,9.4,"SKABU, NO"
01373099999,60.5666666,9.1333333,"NESBYEN TODOKK, NO"
01374099999,60.9333333,10.0333333,"VEST TORPA II, NO"
01375099999,61.4666666,10.1333333,"KVITFJELL, NO"
01375599999,61.0333333,2.0333333,"GULLFAX PLATFORM, NO"
01376099999,60.3833333,9.6,"GULSVIK II, NO"
01378099999,61.1,10.4666666,"LILLEHAMMER SAETHERENGEN, NO"
01380099999,61.65,10.1166666,"VENABU, NO"
01383099999,61.4,11.0802778,"EVENSTAD DIH, NO"
01384099999,60.193917,11.100361,"GARDERMOEN, NO"
01385099999,60.8166666,11.0666666,"HAMER, NO"
01386099999,60.8,11.1,"HAMAR II, NO"
01389099999,61.1833333,11.3666666,"RENA AIRPORT, NO"
01392099999,60.6166666,12.0166666,"FLISA II, NO"
01393099999,61.8833333,12.0333333,"DREVSJO, NO"
01397099999,61.3,12.2666666,"TRYSIL VEGSTASJON, NO"
01400099999,56.55,3.2166666,"EKOFISK, NO"
01403099999,59.3,4.8666666,"UTSIRA FYR, NO"
01403399999,56.55,3.25,"EKOFISK OIL PLTFRM, NO"
01406099999,59.9166666,5.0666666,"SLATTEROY FYR, NO"
01408099999,59.345267,5.208364,"KARMOY, NO"
01411099999,59.0666666,5.4166666,"KVITSOY NORDBO, NO"
01412099999,58.65,5.5666666,"OBRESTAD, NO"
01415099999,58.876667,5.637778,"SOLA, NO"
01416099999,58.95,5.7333333,"STAVANGER VAALAND, NO"
01417099999,59.4833333,5.75,"NEDRE VATS, NO"
01419099999,59.05,6.1166666,"LIARVATN, NO"
01422099999,59.1666666,6.0333333,"FISTER SIGMUNDSTAD, NO"
01424099999,59.65,6.3666666,"SAUDA, NO"
01425099999,58.5166666,6.5166666,"EIK HOVE, NO"
01426099999,58.4333333,5.8666666,"EIGEROYA, NO"
01427099999,58.1166666,6.5666666,"LISTA FYR, NO"
01430099999,58.0166666,7.45,"MANDAL II, NO"
01431099999,58.9333333,6.9166666,"SIRDAL SINNES, NO"
01432099999,58.8833333,6.85,"SIRDAL TJORHOM, NO"
01433099999,59.8333333,6.9833333,"MIDTLAEGER, NO"
01434099999,59.7666666,7.3666666,"VAAGSLI, NO"
01436099999,57.9833333,7.05,"LINDESNES FYR, NO"
01439099999,58.25,7.4419444,"KONSMO HOYLAND, NO"
01441099999,59.5833333,7.3833333,"HOVDEN LUNDANE, NO"
01442099999,58.6666666,7.8,"BYGLANDSFJORD, NO"
01447099999,59.5,8.2,"HOYDALSMO II, NO"
01448099999,58.0666666,8.05,"OKSOY FYR, NO"
01450099999,59.8333333,8.1833333,"MOSSTRAND II, NO"
01452099999,58.204214,8.085369,"KJEVIK, NO"
01455099999,59.0333333,8.5166666,"TVEITSUND, NO"
01459099999,58.65,8.6333333,"NELAUG, NO"
01465099999,58.4,8.7833333,"TORUNGEN FYR, NO"
01467099999,58.6333333,9.15,"LYNGOR FYR, NO"
01468099999,60.1833333,12.0,"KONGSVINGER, NO"
01469099999,60.1666666,10.25,"HONEFOSS HOYBY, NO"
01470099999,59.3833333,9.2,"GVARV, NO"
01470399999,59.565683,9.212222,"NOTODDEN, NO"
01471099999,60.05,9.15,"VEGGLI II, NO"
01473099999,59.6166666,9.6333333,"KONGSBERG BRANNSTASJON, NO"
01476099999,58.85,9.55,"JOMFRULAND FYR, NO"
01477099999,59.7166666,10.15,"KONNERUD, NO"
01478099999,58.9666666,10.15,"SVENNER LH, NO"
01480099999,59.75,10.1333333,"DRAMMEN BERSKOG, NO"
01481099999,59.2333333,10.35,"MELSOM, NO"
01482099999,59.0333333,10.5166666,"FERDER LH, NO"
01482599999,59.186703,10.258628,"TORP, NO"
01483099999,59.1833333,10.2666666,"TORP, NO"
01484099999,59.9166666,11.5833333,"AURSKOG, NO"
01484399999,59.3166667,10.45,"OSEBERG, NO"
01486099999,59.85,10.4333333,"ASKER, NO"
01487099999,59.9333333,10.8333333,"ALNA, NO"
01488099999,60.1166666,10.8333333,"HAKADAL, NO"
01488199999,61.206389,1.828889,"STATFJORD B OIL PLATFORM, NO"
01490099999,59.9833333,10.6833333,"TRYVANNSHOGDA, NO"
01492099999,59.95,10.7166666,"OSLO BLINDERN, NO"
01493099999,59.2833333,11.1166666,"SARPSBORG, NO"
01494099999,59.378889,10.785556,"RYGGE, NO"
01495099999,59.15,10.8333333,"STROMTANGEN FYR, NO"
01497099999,59.0,11.5333333,"PRESTEBAKKE, NO"
02000199999,56.082779,13.2125,"LJUNGBYHED, SW"
02013099999,67.7333333,17.4666666,"RITSEM, SW"
02019099999,68.4166666,18.1666666,"KATTERJAKK A, SW"
02020099999,68.4166666,18.1666666,"KATTERJAKK, SW"
02024099999,67.5,18.3,"STORA SJOFALLET, SW"
02029099999,67.9166666,18.6,"TARFALA, SW"
02031099999,68.0666666,19.8333333,"RENSJON, SW"
02036099999,67.85,19.0333333,"NIKKALUOKTA, SW"
02038099999,67.25,20.2666666,"LATNIVAARA, SW"
02044099999,67.821986,20.336764,"KIRUNA, SW"
02049099999,67.132408,20.814636,"GALLIVARE, SW"
02054099999,68.05,21.75,"NEDRE SOPPERO, SW"
02055099999,68.6833333,21.5333333,"NAIMAKKA, SW"
02064099999,67.3333333,22.2333333,"SAITTAROVA, SW"
02072099999,67.7333333,22.8333333,"PARKALOMPOLO, SW"
02080099999,68.45,22.45,"KARESUANDO, SW"
02081099999,68.45,22.45,"KARESUANDO, SW"
02095099999,67.2,23.3833333,"PAJALA, SW"
02101099999,65.806111,15.082778,"HEMAVAN, SW"
02102099999,65.1,14.5166666,"STEKENJOKK, SW"
02103099999,65.7833333,15.0666666,"HEMAVAN GIEREVARTO, SW"
02110099999,65.3333333,15.0666666,"GIELAS, SW"
02119099999,66.8833333,18.0166666,"KVIKKJOKK ARRENJARKA, SW"
02120099999,66.8833333,18.0166666,"KVIKKJOKK ARRENJARKA, SW"
02120599999,64.95,17.7,"STORUMAN, SW"
02121099999,66.6833333,16.1166666,"MIERKENIS, SW"
02123099999,66.3166666,17.1,"JAKKVIK, SW"
02124099999,66.05,17.8333333,"ARJEPLOG, SW"
02128099999,65.0,17.7,"GUNNARN, SW"
02130099999,66.4833333,16.4166666,"ROPARUDDEN, SW"
02135099999,65.5666666,17.8666666,"BURESJON, SW"
02141099999,66.3166667,19.2166667,"TJAKAAPE, SW"
02146099999,66.5,19.6833333,"VAJMAT, SW"
02147099999,65.15,18.6,"MALA BRANNAN, SW"
02149099999,65.6,19.2666666,"ARVIDSJAUR, SW"
02151099999,66.4833333,20.1666666,"JOKKMOKK FPL, SW"
02154099999,65.875325,20.149917,"VIDSEL, SW"
02161099999,66.75,20.9333333,"NATTAVAARA, SW"
02170099999,65.75,21.7666666,"SAVAST, SW"
02171099999,65.8166666,21.6333333,"BODEN, SW"
02173099999,65.6666666,21.0666666,"ALVSBYN, SW"
02174099999,66.2833333,21.1333333,"LAKATRASK, SW"
02176099999,65.0333333,21.5666666,"PITE RONNSKAR, SW"
02181099999,66.2666666,22.85,"OVERKALIX SVARTBYN, SW"
02184099999,66.8166666,22.3333333,"PAHAROVA, SW"
02186099999,65.543758,22.121989,"KALLAX, SW"
02188099999,65.3166666,22.3833333,"RODKALLEN, SW"
02191099999,65.7,23.1,"STORON, SW"
02196099999,65.8333333,24.15,"HAPARANDA, SW"
02197099999,65.8166666,24.1166666,"HAPARANDA, SW"
02199099999,66.6166666,23.4666666,"YLINENJARVI, SW"
02206099999,63.2833333,12.1333333,"STORLIEN STORVALLEN, SW"
02207099999,63.2833333,12.1166666,"STORLIEN VISJOVALEN A, SW"
02209099999,63.05,12.2833333,"SYLARNA, SW"
02210099999,63.1833333,12.1666666,"BLAHAMMAREN, SW"
02216099999,63.3,13.8833333,"MATTMAR, SW"
02217099999,63.3666666,13.1666666,"ARE, SW"
02219099999,64.5,14.2166666,"GADDEDE A, SW"
02221099999,63.8333333,13.5,"KORSVATTNET, SW"
02226099999,63.2,14.5,"OSTERSUND, SW"
02230099999,64.2166666,15.55,"GUBBHOGEN, SW"
02231099999,63.6833333,14.6,"FOLLINGE, SW"
02233099999,64.9666666,15.3833333,"SAXNAS, SW"
02236099999,63.7666666,15.3333333,"HALLHAXASEN, SW"
02242099999,64.0833333,16.2333333,"HOTING, SW"
02243099999,63.6833333,16.95,"JUNSELE, SW"
02245099999,64.5833333,16.85,"VILHELMINA, SW"
02245599999,64.548322,18.716219,"LYCKSELE, SW"
02247099999,63.15,16.1666666,"KRANGEDE, SW"
02254099999,64.1666666,17.3166666,"ASELE, SW"
02256099999,64.7333333,17.4,"RISTRASK, SW"
02259099999,63.048597,17.768856,"KRAMFORS SOLLEFTEA, SW"
02260099999,63.1333333,18.25,"VASTMARKUM, SW"
02261099999,64.55,18.7166666,"LYCKSELE, SW"
02263099999,64.0833333,18.3666666,"FREDRIKA, SW"
02265099999,63.65,18.55,"HEMLING, SW"
02267099999,63.408339,18.990039,"ORNSKOLDSVIK, SW"
02269099999,63.1833333,19.0166666,"SKAGSUDDE, SW"
02271099999,64.9333333,19.3833333,"NORSJO, SW"
02282099999,64.5666666,19.7,"PETISTRASK, SW"
02284099999,63.4333333,19.6833333,"JARNASKLUBB, SW"
02286099999,63.791828,20.282758,"UMEA, SW"
02286199999,61.2666667,17.1,"SODERHAMN, SW"
02287099999,63.8,20.8666666,"HOLMON, SW"
02292099999,64.4333333,21.2833333,"HOKMARKSBERGET, SW"
02293099999,64.624772,21.076892,"SKELLEFTEA, SW"
02297099999,64.4833333,21.5833333,"BJUROKLUBB, SW"
02302099999,61.8333333,12.2833333,"STORBO, SW"
02303099999,62.7333333,12.7333333,"FLATRUET, SW"
02307099999,61.8833333,12.85,"IDRE FJALL, SW"
02308099999,62.45,12.6666666,"TANNAS, SW"
02311099999,61.15,13.1166666,"HOGFJALLSHOTELLET, SW"
02317099999,62.1,13.6166666,"DRAVAGEN, SW"
02319099999,62.75,13.85,"BORTNAN, SW"
02321099999,61.25,14.0333333,"ALVDALEN, SW"
02324099999,62.0166666,14.1833333,"SVEG, SW"
02325099999,62.5,14.15,"KLOVSJOHOJDEN, SW"
02327099999,62.05,14.4,"SVEG A, SW"
02329099999,61.6666666,15.0,"HAMRA, SW"
02331099999,62.75,15.0833333,"HUNGE, SW"
02337099999,62.2666666,15.6666666,"NORRHOG, SW"
02338099999,61.3666666,15.7166666,"EDSBYN, SW"
02343099999,62.5,16.2833333,"TORPSHAMMAR, SW"
02347099999,61.8333333,16.55,"DELSBO, SW"
02349099999,62.7666666,16.7333333,"SILLRE, SW"
02354099999,62.4333333,17.35,"RASTA, SW"
02355099999,61.7,17.5333333,"KUGGOREN, SW"
02366099999,62.528125,17.443928,"SUNDSVALL HARNOSAND, SW"
02368099999,62.2166666,17.75,"BRAMON, SW"
02382099999,62.65,18.1,"LUNGO, SW"
02403099999,58.7,13.1166666,"NAVEN, SW"
02407099999,60.6833333,13.7,"MALUNG A, SW"
02408099999,59.2166666,12.0833333,"BLOMSKOG, SW"
02410099999,60.6833333,13.7,"MALUNG, SW"
02411099999,59.675856,12.639442,"ARVIKA, SW"
02413099999,60.75,12.7666666,"BRATTMON, SW"
02417099999,58.75,13.15,"PALGRUNDEN, SW"
02418099999,59.444714,13.337361,"KARLSTAD, SW"
02423099999,59.8666666,13.1166666,"SUNNE, SW"
02426099999,60.15,13.8,"GUSTAVSFORS, SW"
02428399999,59.223733,15.037956,"OREBRO, SW"
02428499999,60.957908,14.511383,"MORA, SW"
02429099999,59.6666666,14.1833333,"DAGLOSEN, SW"
02431099999,59.8666666,15.25,"KLOTEN, SW"
02432099999,59.2333333,15.05,"OREBRO, SW"
02435099999,60.422017,15.515211,"BORLANGE, SW"
02440099999,60.9666666,16.4333333,"AMOT, SW"
02441099999,60.9666666,14.5,"MORA, SW"
02443099999,59.65,17.1166666,"ENKOPING, SW"
02446099999,59.589444,16.633611,"VASTERAS, SW"
02449099999,59.3833333,16.45,"ESKILSTUNA A, SW"
02450099999,60.7333333,17.5666666,"EGGEGRUND, SW"
02452099999,59.3,14.9,"KILSBERGEN SUTTARBODA, SW"
02453099999,60.7166666,17.1666666,"GAVLE SANDVIKEN AIR FORCE BASE, SW"
02456099999,60.2333333,17.9,"FILM, SW"
02458099999,59.897328,17.588581,"UPPSALA, SW"
02460099999,59.651944,17.918611,"ARLANDA, SW"
02464099999,59.354372,17.94165,"BROMMA, SW"
02468099999,60.3833333,15.1333333,"STORA SPANSBERGET, SW"
02469099999,59.1833333,17.9166667,"TULLINGE, SW"
02472099999,60.1166666,15.1166666,"SKEPPMORA, SW"
02476099999,59.05,16.4,"FLODA, SW"
02481099999,59.9166666,16.6833333,"SALA, SW"
02482099999,60.2666666,16.9833333,"KERSTINBO, SW"
02484099999,59.35,18.0666666,"STOCKHOLM OBSERVATORIET, SW"
02485099999,59.35,18.0666666,"STOCKHOLM, SW"
02485399999,58.788636,16.912189,"SKAVSTA, SW"
02486099999,59.3666666,17.5166666,"ADELSO, SW"
02487099999,59.35,18.7333333,"SKARPO A, SW"
02488099999,60.5333333,18.3833333,"ORSKAR, SW"
02489099999,59.0666666,18.1166666,"BERGA, SW"
02490099999,59.8333333,18.6333333,"SVANBERGA, SW"
02493099999,59.75,19.4166666,"SODERARM, SW"
02496099999,59.45,19.5,"SVENSKA HOGARNA, SW"
02498099999,59.45,19.5,"SVENSKA HOGARNA A, SW"
02499099999,59.15,19.1333333,"ALMAGRUNDET, SW"
02500099999,58.9,11.0,"NORDKOSTER, SW"
02501099999,58.5833333,11.0666666,"VADEROARNA, SW"
02505099999,58.1,11.3333333,"MASESKAR, SW"
02507099999,58.6666666,11.4166666,"HUD, SW"
02510399999,58.318056,12.345,"TROLLHATTAN VANERSBORG, SW"
02510599999,58.465522,13.174414,"LIDKOPING, SW"
02512099999,57.774722,11.870372,"SAVE, SW"
02513099999,57.7166666,12.0,"GOTEBORG, SW"
02514099999,65.590278,19.281944,"ARVIDSJAUR, SW"
02515099999,58.2,12.15,"TORPABRON, SW"
02516099999,57.6333333,11.6166666,"VINGA, SW"
02518099999,57.3,11.9,"NIDINGEN, SW"
02520099999,58.426445,12.714389,"SATENAS, SW"
02521099999,58.6,12.4166666,"BERGARUD, SW"
02526099999,57.662836,12.279819,"LANDVETTER, SW"
02535099999,58.4564,13.972672,"SKOVDE, SW"
02536099999,57.7833333,13.1666666,"RANGEDALA, SW"
02539099999,57.1166666,12.7833333,"ULLARED, SW"
02540099999,58.6,12.2,"KROPPEFJALL GRANAN, SW"
02542099999,58.3166666,13.0333333,"HALLUM, SW"
02544099999,58.5166666,14.5166666,"KARLSBORG, SW"
02545099999,58.5666666,14.5666666,"AXSTAL, SW"
02546099999,58.8833333,14.3833333,"GARDSJO, SW"
02548099999,58.1,14.4166666,"VISINGSO, SW"
02549099999,57.5,14.4666666,"TOMTABACKEN, SW"
02550099999,57.757594,14.068731,"JONKOPING, SW"
02552099999,58.0666666,15.2333333,"MALEXANDER, SW"
02553099999,58.0833333,13.7833333,"KYMBO, SW"
02554099999,58.7166666,15.0333333,"KETTSTAKA, SW"
02556099999,57.292222,14.137222,"HAGSHULT, SW"
02557099999,57.8833333,15.8666666,"HORN, SW"
02558099999,58.6833333,16.3166666,"KOLMARDEN STROMSFORS, SW"
02559099999,57.7,16.4666666,"GLADHAMMAR, SW"
02561099999,58.65,15.4333333,"KVARN, SW"
02562099999,58.402278,15.525683,"MALMEN, SW"
02562599999,58.40615,15.680508,"SAAB, SW"
02563099999,58.25,17.0166666,"HARSTENA, SW"
02563599999,56.2833333,12.8333333,"ANGELHOLM, SW"
02565099999,57.525833,15.823333,"HULTSFRED, SW"
02567099999,58.75,17.8666666,"LANDSORT, SW"
02571099999,58.586253,16.250622,"KUNGSANGEN, SW"
02574099999,58.5833333,16.15,"NORRKOPING, SW"
02575099999,57.3666666,17.1,"OLANDS NORRA UDDE, SW"
02587099999,57.9166666,18.95,"FAROSUND AR, SW"
02589099999,58.4,19.2,"GOTSKA SANDON, SW"
02590099999,57.662797,18.346211,"VISBY, SW"
02595099999,57.55,18.4333333,"ROMA, SW"
02598099999,57.4333333,18.9833333,"OSTERGARNSHOLM, SW"
02602099999,56.4,12.95,"HALLANDSASEN, SW"
02603099999,56.8666666,12.6666666,"BROEN, SW"
02604099999,56.691128,12.820211,"HALMSTAD, SW"
02605099999,56.45,12.55,"HALLANDS VADERO, SW"
02609099999,55.4666666,13.6666666,"RYNGE, SW"
02611099999,56.0333333,12.7666666,"HELSINGBORG, SW"
02615099999,55.3833333,12.8166666,"FALSTERBO A, SW"
02616099999,55.3833333,12.8166666,"FALSTERBO, SW"
02618099999,56.95,13.0666666,"TORUP, SW"
02622099999,56.85,13.8833333,"LJUNGBY, SW"
02623099999,55.8666666,13.6666666,"HORBY, SW"
02625099999,55.4833333,14.3166666,"SKILLINGE, SW"
02628099999,56.0166666,14.85,"HANO, SW"
02629099999,56.2833333,13.9333333,"HASTVEDA, SW"
02632099999,55.95,15.7,"UTKLIPPAN, SW"
02635099999,55.5666666,13.0666666,"MALMO, SW"
02636099999,55.530193,13.371639,"STURUP, SW"
02641099999,56.929144,14.727994,"KRONOBERG, SW"
02644099999,56.2,16.4,"OLANDS SODRA UDDE, SW"
02646099999,56.6666666,16.4666666,"OLANDSBRON LAG, SW"
02648099999,56.85,14.8333333,"VAXJO, SW"
02651099999,55.921686,14.085536,"KRISTIANSTAD, SW"
02652099999,56.0166666,14.1,"KRISTIANSTAD, SW"
02661099999,56.8333333,15.4666666,"KOSTA ORREFORS, SW"
02664099999,56.266667,15.265,"RONNEBY, SW"
02667099999,56.15,15.5833333,"KARLSKRONA SODERSTJERNA, SW"
02670099999,56.6833333,16.3,"KALMAR, SW"
02672099999,56.685531,16.287578,"KALMAR, SW"
02679099999,56.9166666,18.15,"HOBURG A, SW"
02680099999,56.9166666,18.15,"HOBURG, SW"
02701099999,69.05,20.85,"KILPISJARVI SAANA, FI"
02703099999,60.2,24.7333333,"ESPOO SEPANKYLA, FI"
02704099999,61.1166666,24.3166666,"HATTULA LEPAA AWS, FI"
02705099999,67.0166666,27.2166666,"PELKOSENNIEMI PYHATUNTURI, FI"
02706099999,60.25,24.05,"LOHJA PORLA, FI"
02710099999,62.9166666,26.4166666,"VESANTO SONKARI, FI"
02711099999,63.1,21.6166666,"VAASA KESKUSTA, FI"
02714099999,64.5,26.4402778,"VAALA PELSO, FI"
02717099999,68.1666666,25.7666666,"KITTILA POKKA, FI"
02719099999,67.8166666,27.75,"SODANKYLA KOKKA, FI"
02720099999,67.701022,24.84685,"KITTILA, FI"
02721099999,63.95,22.85,"KOKKOLA TANKAR, FI"
02722099999,68.4166666,27.4166666,"INARI SAARISELKA, FI"
02723099999,67.7833333,24.85,"KITTILA LEVITUNTURI, FI"
02725099999,63.45,24.45,"HALSUA KANALA PUROLA, FI"
02726099999,68.6,23.5833333,"ENONTEKIO NAKKALA, FI"
02727099999,61.2666666,25.5166666,"ASIKKALA PULKKILANHARJU, FI"
02728099999,61.3,28.1833333,"TAIPALSAARI KYLANIEMI, FI"
02729099999,61.8833333,25.3333333,"JAMSA HIMOS, FI"
02730099999,61.8333333,28.85,"SAVOLINNA RUUNAVUORI, FI"
02731099999,61.5333333,28.2,"PUUMALA KK, FI"
02732099999,62.8,27.9,"KUOPIO RITONIEMI, FI"
02733099999,61.0333333,28.5666666,"LAPPEENRANTA KONNUNSUO, FI"
02734099999,61.45,29.4666666,"PARIKKALA KOITSANLAHTI, FI"
02735099999,62.3333333,23.55,"VIRRAT AIJANNEVA, FI"
02736099999,61.9,27.8833333,"JUVA PARTALA, FI"
02737099999,63.8166666,24.1666666,"TOHOLAMPI LAITALA, FI"
02738099999,63.7333333,25.7,"PYHAJARVI OL OJAKYLA, FI"
02739099999,64.1166666,28.3333333,"SOTKAMO KUOLANIEMI, FI"
02741099999,60.1833333,19.9833333,"JOMALA JOMLABY, FI"
02743099999,59.8666666,22.2,"KEMIONSAARI VANO, FI"
02745099999,67.1666666,29.1833333,"SALLA NARUSKA, FI"
02746099999,59.8166666,22.9166666,"HANKO TULLINIEMI, FI"
02747099999,60.3833333,22.1,"TURKU RAJAKARI, FI"
02748099999,62.171111,27.868611,"VARKAUS, FI"
02750099999,59.85,23.25,"HANKO TVARMINNE, FI"
02751099999,61.6333333,21.3833333,"PORI TAHKOLUOTO HARBOUR, FI"
02752099999,62.2,21.1666666,"KRISTIINANKAUPUNKI LIGHTHOUSE, FI"
02753099999,61.8333333,22.4666666,"KANKAANPAA NIINISALO AIRFIELD, FI"
02754099999,61.0,24.5,"HAMEENLINNA KATINEN, FI"
02755099999,64.05,24.7166666,"YLIVIESKA AIRFIELD, FI"
02756099999,60.3666666,23.1166666,"SALO KARKKA, FI"
02757099999,59.8166666,23.5833333,"RAASEPORI JUSSARO, FI"
02758099999,60.4166666,24.4,"VIHTI MAASOJA, FI"
02759099999,60.4,25.6,"PORVOO HARABACKA, FI"
02761099999,61.15,21.3,"RAUMA KYLMAPIHLAJA, FI"
02762099999,61.2666666,22.25,"KOKEMAKI PEIPOHJA HYRKOLA, FI"
02763099999,61.4666666,23.75,"TAMPERE HARMALA, FI"
02765099999,61.7,25.5,"LUHANKA JUDINSALO, FI"
02767099999,61.05,25.05,"HAMEENLINNA LAMMI PAPPILA, FI"
02768099999,61.2,26.05,"HEINOLA ASEMANTAUS, FI"
02769099999,62.4166666,22.1833333,"KAUHAJOKI KUJA KOKKO, FI"
02770099999,61.85,24.2833333,"JUUPAJOKI HYYTIALA, FI"
02771099999,61.8833333,26.1,"JOUTSA LEIVONMAKI SAVENAHO, FI"
02772099999,62.0666666,28.5666666,"RANTASALMI RUKKASLUOTO, FI"
02773099999,60.45,22.1833333,"TURKU ARTUKAINEN, FI"
02777099999,60.4666666,23.65,"SALO KIIKALA AIRFIELD, FI"
02778099999,61.8,29.3166666,"SAVONLINNA PUNKAHARJU, FI"
02780099999,62.9333333,21.1833333,"KORSNAS BREDSKARET, FI"
02781099999,62.9833333,20.7333333,"STROMMINGSBADN, FI"
02787099999,63.0833333,24.2666666,"ALAJARVI MOKSY, FI"
02788099999,63.15,27.3166666,"KUOPIO MAANINKA, FI"
02789099999,63.3833333,28.6666666,"RAUTAVAARA YLA LUOSTA, FI"
02790099999,60.25,20.75,"KUMLINGE KK, FI"
02791099999,63.2333333,29.2333333,"JUUKA NIEMELA, FI"
02793099999,62.55,29.6666666,"LIPERI TUISKAVANLUOTO, FI"
02794099999,59.9166666,24.35,"KIRKKONUMMI MAKILUOTO, FI"
02795099999,60.1,24.9833333,"HELSINKI HARMAJA, FI"
02796099999,63.3166666,30.05,"LIEKSA LAMPELA, FI"
02797099999,64.15,25.4166666,"HAAPAVEST MUSTIKKAMAKI, FI"
02798099999,63.6666666,28.8333333,"VALTIMO KK, FI"
02799099999,64.3,30.1666666,"KUHMO KALLIOJOKI, FI"
02800099999,64.6166666,23.9,"RAAHE NAHKIAINEN, FI"
02801099999,69.05,20.7833333,"ENONTEKIO KILPISJARVI, FI"
02803099999,64.6833333,25.0833333,"SIIKAJOKI REVONLAHTI, FI"
02804099999,65.5833333,28.2166666,"TAIVALKOSKI KK URHEILUTIE, FI"
02805099999,69.75,27.0,"UTSJOKI KEVO, FI"
02807099999,68.607269,27.405328,"IVALO, FI"
02807599999,68.362586,23.424322,"ENONTEKIO, FI"
02808099999,69.5833333,28.85,"INARI SEVETTIJARVI, FI"
02811099999,66.3666666,29.3166666,"KUUSAMO KIUTAKONGAS, FI"
02812099999,66.5333333,24.65,"YLITORNIO MELTOSJARVI, FI"
02813099999,66.5833333,26.0166666,"ROVANIEMI APUKKA, FI"
02814099999,66.7166666,27.1666666,"KEMIJARVI AIRFIELD, FI"
02815099999,67.2833333,28.1833333,"SAVUKOSKI KK, FI"
02816099999,68.0833333,27.1833333,"SODANKYLA VUOTSO, FI"
02817099999,68.4333333,27.45,"SAARISELKA KAUNISPAA, FI"
02818099999,68.4833333,28.3,"INARI RAJAJOOSEPPI, FI"
02819099999,67.75,29.6166666,"SALLA VARRIOTUNTURI, FI"
02820099999,68.0666666,24.0333333,"MUONIO LAUKUKERO, FI"
02821099999,67.9666666,24.1166666,"MUONIO SAMMALTUNTURI, FI"
02823099999,67.9666666,23.6833333,"MUONIO ALAMUONIO, FI"
02824099999,67.9833333,24.25,"KITTILA KENTTAROVA, FI"
02825099999,70.0833333,27.9,"UTSJOKI NUORGAM, FI"
02827099999,69.0666666,27.5,"INARI VAYLA, FI"
02828099999,60.3833333,22.55,"KAARINA YLTOINEN, FI"
02829099999,60.6,24.8,"HYVINKAA HYVINKAANKYLA, FI"
02830099999,60.7,26.8166666,"KOUVOLA ANJALA, FI"
02831099999,60.5333333,27.6666666,"VIROLAHTI KOIVUNIEMI, FI"
02832099999,62.2333333,30.35,"TOHMAJARVI KEMIE, FI"
02833099999,62.9333333,22.4833333,"SEINAJOKI PELMAA, FI"
02834099999,63.8333333,27.2166666,"VIEREMA KAARAKKALA, FI"
02835099999,68.85,28.3,"INARI NELLIM, FI"
02836099999,67.395033,26.619133,"SODANKYLA, FI"
02844099999,66.7666666,23.9666666,"PELLO CENTRE, FI"
02845099999,66.564822,25.830411,"ROVANIEMI, FI"
02847099999,66.5,25.7166666,"ROVANIEMI RAUTATIEASEMA, FI"
02849099999,66.8333333,28.6666666,"SALLA KK MYLLYTIE, FI"
02862099999,65.6666666,24.5166666,"KEMI AJOS, FI"
02863099999,65.3833333,24.1,"KEMI I LIGHTHOUSE, FI"
02864099999,65.781889,24.5991,"KEMI TORNIO, FI"
02866099999,65.4166666,26.9666666,"PUDASJARVI AIRFIELD, FI"
02868099999,66.1666666,29.15,"KUUSAMO RUKATUNTURI, FI"
02869099999,65.987575,29.239381,"KUUSAMO, FI"
02872099999,64.6666666,24.4,"RAAHE LAPALUOTO HARBOUR, FI"
02873099999,65.0333333,24.5666666,"HAILUOTO MARJANIEMI, FI"
02874099999,65.0333333,24.8,"HAILUOTO ISLAND, FI"
02875099999,64.930061,25.354564,"OULU, FI"
02876099999,65.0,25.4,"OULU VIHREASAARI HARBOUR, FI"
02889099999,64.9333333,28.75,"SUOMUSSALMI PESIO, FI"
02897099999,64.285472,27.692414,"KAJAANI, FI"
02903099999,63.721172,23.143131,"KRUUNUPYY, FI"
02907099999,64.3333333,23.45,"KALAJOKI ULKOKALLA, FI"
02910099999,63.4333333,21.0666666,"MUSTASAARI VALASSAARET, FI"
02911099999,63.05065,21.762175,"VAASA, FI"
02913099999,63.127078,23.051442,"KAUHAVA, FI"
02915099999,63.0833333,25.8666667,"VIITASAARI, FI"
02917099999,63.00715,27.797756,"KUOPIO, FI"
02920099999,63.75,22.5166666,"PIETARSAARI KALLAN, FI"
02924099999,62.5333333,24.2166666,"AHTARI MYLLYMAKI, FI"
02924599999,62.692119,22.832328,"SEINAJOKI, FI"
02929099999,62.662906,29.60755,"JOENSUU, FI"
02935099999,62.399453,25.678253,"JYVASKYLA, FI"
02939099999,62.7666666,30.9833333,"ILOMANTSI MEKRIJARVI, FI"
02942099999,61.8333333,22.4666666,"KANKAANPAA NIINISALO PUOLVOIM, FI"
02943099999,61.5166666,23.75,"TAMPERE SIILINKARI, FI"
02944099999,61.414147,23.604392,"TAMPERE PIRKKALA, FI"
02945099999,61.85605,24.7866,"HALLI, FI"
02947099999,61.6866,27.201794,"MIKKELI, FI"
02948099999,61.943064,28.945136,"SAVONLINNA, FI"
02950099999,60.1166666,21.7,"PARAINEN FAGERHOLM, FI"
02952099999,61.461686,21.799983,"PORI, FI"
02958099999,61.044553,28.144397,"LAPPEENRANTA, FI"
02963099999,60.8166666,23.5,"JOKIOINEN, FI"
02964099999,60.7166666,21.0333333,"KUSTAVI ISOKARI, FI"
02965099999,60.9666666,25.6333333,"LAHTI LAUNE, FI"
02966099999,60.896394,26.938353,"UTTI, FI"
02967099999,60.2833333,27.1833333,"KOTKA HAAPASAARI, FI"
02970099999,60.122203,19.898156,"MARIEHAMN, FI"
02972099999,60.514142,22.262808,"TURKU, FI"
02974099999,60.317222,24.963333,"HELSINKI VANTAA, FI"
02975099999,60.254558,25.042828,"HELSINKI MALMI, FI"
02976099999,60.3833333,26.9666666,"KOTKA RANKKI, FI"
02978099999,60.1833333,24.95,"HELSINKI KAISANIEMI, FI"
02979099999,59.5,20.35,"KOKAR BOGSKAR, FI"
02980099999,59.9666666,19.95,"LEMLAND NYHAMN, FI"
02981099999,59.7833333,21.3666666,"PARAINEN UTO, FI"
02982099999,59.7666666,22.95,"HANKO RUSSARO, FI"
02984099999,59.9333333,24.0166666,"INKOO BAGASKAR, FI"
02987099999,59.9833333,25.6,"PORVOO KALLBADAGRUND, FI"
02991099999,60.2,25.6333333,"PORVOO EMASALO, FI"
02992099999,60.2833333,26.45,"LOVIISA ORRENGRUND, FI"
02993099999,60.3,19.1333333,"HAMMARLAND MARKET, FI"
03002099999,60.75,-0.85,"BALTASOUND NUMBER 2, UK"
03003099999,59.878889,-1.295556,"SUMBURGH, UK"
03005099999,60.1333333,-1.1833333,"LERWICK, UK"
03006099999,60.45,-1.2666667,"SELLA NESS, UK"
03006499999,60.432778,-1.296111,"SCATSTA, UK"
03008099999,59.5333333,-1.6333333,"FAIR ISLE, UK"
03010099999,59.0833333,-4.4,"SULE SKERRY, UK"
03014099999,60.1166666,-2.0666666,"FOULA NUMBER 2, UK"
03017099999,58.957778,-2.905,"KIRKWALL, UK"
03018099999,53.581575,-3.055522,"WOODVALE, UK"
03022099999,57.481111,-7.362778,"BENBECULA, UK"
03023099999,57.3333333,-7.3666666,"SOUTH UIST RANGE, UK"
03026099999,58.215556,-6.331111,"STORNOWAY, UK"
03031099999,57.7166666,-4.8833333,"LOCH GLASCARNOCH, UK"
03034099999,57.8666666,-5.6333333,"AULTBEA NUMBER 2, UK"
03037099999,57.25,-5.8,"SKYE LUSA, UK"
03039099999,57.4166666,-5.6833333,"BEALACH NA BA NUMBER 2, UK"
03041099999,56.8166666,-4.9666666,"AONACH MOR, UK"
03044099999,58.2833333,-4.4333333,"ALTNAHARRA NUMBER 2, UK"
03047099999,56.8666666,-4.7,"TULLOCH BRIDGE, UK"
03059099999,57.5425,-4.0475,"INVERNESS, UK"
03062099999,57.8166667,-3.9666667,"TAIN RANGE SAWS, UK"
03063099999,57.2,-3.8333333,"AVIEMORE, UK"
03065099999,57.1166666,-3.6333333,"CAIRNGORM SUMMIT, UK"
03066099999,57.649386,-3.560636,"KINLOSS, UK"
03068099999,57.705214,-3.339169,"LOSSIEMOUTH, UK"
03072099999,56.8833333,-3.4166666,"CAIRNWELL, UK"
03075099999,58.458889,-3.093056,"WICK, UK"
03080099999,57.0833333,-2.8333333,"ABOYNE NUMBER 2, UK"
03088099999,56.85,-2.2666666,"INVERBERVIE NUMBER 2, UK"
03091099999,57.201944,-2.197778,"DYCE, UK"
03092099999,57.5,-1.7666666,"PETERHEAD HARBOUR, UK"
03094099999,57.7,-2.1166666,"ROSEHEARTY, UK"
03100099999,56.499167,-6.869167,"TIREE, UK"
03105099999,55.6833333,-6.25,"ISLAY PORT ELLEN, UK"
03111099999,55.4333333,-5.7,"MACHRIHANISH, UK"
03114099999,56.417,-5.467,"OBAN, UK"
03132099999,54.85,-4.95,"WEST FREUGH AUT, UK"
03134099999,55.9,-4.5333333,"GLASGOW BISHOPTON, UK"
03135099999,55.509444,-4.586667,"PRESTWICK, UK"
03136099999,55.5166666,-4.5833333,"PRESTWICK RNAS, UK"
03139499999,55.437222,-5.686389,"CAMPBELTOWN, UK"
03140099999,55.871944,-4.433056,"GLASGOW, UK"
03144099999,56.3166666,-3.7333333,"STRATHALLEN AIRFIELD, UK"
03148099999,56.4166666,-4.3166666,"GLEN OGLE, UK"
03153099999,54.8,-4.0,"DUNDRENNAN, UK"
03155099999,55.6166666,-3.7333333,"DRUMALBIN, UK"
03158099999,55.7,-2.3833333,"CHARTERHALL, UK"
03160099999,55.95,-3.3725,"EDINBURGH, UK"
03162099999,55.3166666,-3.2,"ESKDALEMUIR, UK"
03163499999,56.452499,-3.025833,"DUNDEE, UK"
03165099999,55.05,-2.55,"SPADEADAM, UK"
03166099999,55.9333333,-3.35,"EDINBURGH GOGARBANK, UK"
03171099999,56.372889,-2.868444,"LEUCHARS, UK"
03204099999,54.083333,-4.623889,"ISLE OF MAN, IM"
03210099999,54.5166666,-3.6,"ST BEES HEAD NUMBER 2, UK"
03212099999,54.6166666,-3.1666666,"KESWICK, UK"
03214099999,54.131167,-3.263667,"WALNEY ISLAND, UK"
03220099999,54.9333333,-2.9666666,"CARLISLE, UK"
03222099999,54.9375,-2.809167,"CARLISLE, UK"
03224099999,55.05,-2.55,"SPADEADAM NUMBER 2, UK"
03225099999,54.5,-2.6833333,"SHAP, UK"
03226099999,54.5666666,-2.4166666,"WARCOP RANGE, UK"
03227099999,54.6833333,-2.45,"GREAT DUN FELL NUMBER 2, UK"
03230099999,55.2833333,-2.2833333,"REDESDALE CAMP, UK"
03238099999,55.0166666,-1.8666666,"ALBEMARLE, UK"
03240099999,55.424167,-1.603333,"BOULMER, UK"
03243399999,55.0375,-1.691667,"NEWCASTLE, UK"
03257099999,54.292383,-1.5354,"LEEMING, UK"
03261099999,54.137186,-1.420253,"DISHFORTH, UK"
03263599999,54.509189,-1.429406,"DURHAM TEES VALLEY AIRPORT, UK"
03264399999,54.205522,-1.382094,"TOPCLIFFE, UK"
03265099999,54.2,-1.3833333,"TOPCLIFFE, UK"
03266099999,54.048911,-1.252747,"LINTON ON OUSE, UK"
03275099999,54.5666666,-0.8666666,"LOFTUS, UK"
03281099999,54.3666666,-0.6666666,"FYLINGDALES, UK"
03292099999,54.1,-0.1666666,"BRIDLINGTON MRSC, UK"
03301099999,53.2666666,-4.3666666,"MONA, UK"
03302099999,53.248097,-4.535339,"VALLEY, UK"
03305099999,53.1,-3.9333333,"CAPEL CURIG NUMBER 3, UK"
03313099999,53.25,-3.5,"RHYL NUMBER 2, UK"
03316099999,53.5,-3.0666666,"CROSBY, UK"
03318099999,53.771667,-3.028611,"BLACKPOOL, UK"
03321099999,53.178056,-2.977778,"HAWARDEN, UK"
03323399999,53.333611,-2.849722,"LIVERPOOL, UK"
03330099999,53.1333333,-1.9833333,"LEEK THORNCLIFFE, UK"
03334099999,53.353744,-2.27495,"MANCHESTER, UK"
03344099999,53.8166666,-1.8666666,"BINGLEY NUMBER 2, UK"
03346099999,53.6,-1.6666666,"EMLEY MOOR NUMBER 2, UK"
03346399999,53.865897,-1.660569,"LEEDS BRADFORD, UK"
03346499999,50.12,-5.52,"PENZANCE HELIPORT, UK"
03346599999,50.4333333,-4.9833333,"NEWQUAY CORNWALL, UK"
03348099999,53.3333333,-2.15,"WOODFORD, UK"
03354099999,53.0,-1.25,"NOTTINGHAM WATNALL, UK"
03355099999,53.834333,-1.1955,"CHURCH FENTON, UK"
03372399999,52.962225,-0.561625,"BARKSTON HEATH, UK"
03373099999,53.307778,-0.550833,"SCAMPTON, UK"
03373599999,53.574444,-0.350833,"HUMBERSIDE, UK"
03377099999,53.166167,-0.523811,"WADDINGTON, UK"
03379099999,53.03035,-0.483242,"CRANWELL, UK"
03382099999,53.8666666,-0.4333333,"LECONFIELD, UK"
03385099999,53.4666666,0.0666666,"DONNA NOOK, UK"
03391099999,53.093014,-0.166014,"CONINGSBY, UK"
03392099999,53.0833333,0.2666667,"WAINFLEET AUT, UK"
03405099999,52.7833333,-4.7333333,"ABERDARON, UK"
03405499999,53.474722,-1.004444,"DONCASTER SHEFFIELD, UK"
03405599999,52.65,-1.7833333,"NORTH DENES AIRPORT, UK"
03410099999,52.75,-3.4666666,"LAKE VYRNWY NUMBER 2, UK"
03414099999,52.798169,-2.668042,"SHAWBURY, UK"
03414599999,52.640028,-2.305578,"COSFORD, UK"
03418599999,52.831111,-1.328056,"NOTTINGHAM EAST MIDLANDS, UK"
03453099999,52.735711,-0.648769,"COTTESMORE, UK"
03462099999,52.612558,-0.476453,"WITTERING, UK"
03469099999,52.8666667,0.15,"HOLBEACH AUT, UK"
03482099999,52.648353,0.550692,"MARHAM, UK"
03488099999,52.95,1.1333333,"WEYBOURNE, UK"
03492099999,52.675833,1.282778,"NORWICH, UK"
03496099999,52.683,1.683,"HEMSBY, UK"
03502099999,52.1333333,-4.5666667,"ABERPORTH, UK"
03503099999,52.35,-3.95,"TRAWSGOED, UK"
03507099999,52.0666666,-3.6166666,"SENNYBRIDGE NUMBER 2, UK"
03520099999,52.25,-2.8833333,"SHOBDON AIRFIELD, UK"
03522099999,52.0833333,-2.8,"HEREFORD CREDENHILL, UK"
03529099999,52.15,-2.0333333,"PERSHORE, UK"
03534099999,52.453856,-1.748028,"BIRMINGHAM, UK"
03535099999,52.4833333,-1.6833333,"COLESHILL, UK"
03541399999,52.369722,-1.479722,"COVENTRY, UK"
03544099999,52.3666666,-1.3333333,"CHURCH LAWFORD, UK"
03557399999,52.072222,-0.616667,"CRANFIELD, UK"
03560099999,52.2166666,-0.4833333,"BEDFORD, UK"
03566099999,52.357167,-0.107833,"WYTON, UK"
03566199999,55.681944,-6.256667,"ISLAY, UK"
03571599999,52.205,0.175,"CAMBRIDGE, UK"
03577035046,52.36667,0.48333,"MILDENHALL, UK"
03583035034,52.4,0.56667,"LAKENHEATH RAF, UK"
03590099999,52.127283,0.956264,"WATTISHAM, UK"
03604099999,51.7,-5.05,"MILFORD HAVEN CONSERVANCY BOARD, UK"
03605099999,51.7166667,-4.3666667,"PEMBRY SANDS, UK"
03609099999,51.5666666,-3.9833333,"MUMBLES HEAD, UK"
03628399999,51.519444,-2.590833,"BRISTOL FILTON, UK"
03633399999,51.894167,-2.167222,"GLOUCESTERSHIRE, UK"
03644099999,51.682167,-1.790028,"FAIRFORD, UK"
03647099999,51.8666666,-1.6833333,"LITTLE RISSINGTON, UK"
03649099999,51.749964,-1.583617,"BRIZE NORTON, UK"
03658099999,51.616389,-1.095833,"BENSON, UK"
03658499999,51.439083,-2.286389,"COLERNE, UK"
03660099999,51.6833333,-0.8,"HIGH WYCOMBE HQAIR, UK"
03672099999,51.553,-0.418167,"NORTHOLT, UK"
03673399999,51.874722,-0.368333,"LUTON, UK"
03683099999,51.885,0.235,"STANSTED, UK"
03684099999,51.8833333,0.45,"ANDREWSFIELD, UK"
03691399999,51.571389,0.695556,"SOUTHEND, UK"
03693099999,51.55,0.8333333,"SHOEBURYNESS LANDWICK, UK"
03707099999,51.087167,-4.150339,"CHIVENOR, UK"
03710099999,51.0833333,-3.6,"LISCOMBE, UK"
03715099999,51.396667,-3.343333,"CARDIFF, UK"
03716099999,51.404811,-3.43575,"ST ATHAN, UK"
03724399999,51.382669,-2.719089,"BRISTOL, UK"
03740099999,51.505144,-1.993428,"LYNEHAM, UK"
03743099999,51.2,-1.8,"LARKHILL, UK"
03746099999,51.152189,-1.747414,"BOSCOMBE DOWN, UK"
03749099999,51.15,-1.5666667,"MIDDLE WALLOP, UK"
03761099999,51.234139,-0.942825,"ODIHAM, UK"
03766399999,51.330833,0.0325,"BIGGIN HILL, UK"
03768099999,51.275833,-0.776333,"FARNBOROUGH, UK"
03768399999,51.505278,0.055278,"CITY, UK"
03769099999,51.1438889,-0.2294444,"CHARLWOOD, UK"
03770099999,51.5,-0.1166666,"ST JAMES PARK, UK"
03772099999,51.4775,-0.461389,"HEATHROW, UK"
03776099999,51.148056,-0.190278,"GATWICK, UK"
03779099999,51.5,-0.1166667,"LONDON WEA CENTER, UK"
03781099999,51.3,-0.0833333,"KENLEY AIRFIELD, UK"
03784099999,51.4666666,0.3,"GRAVESEND BROADNESS, UK"
03796099999,51.1333333,1.35,"LANGDON BAY, UK"
03797035047,51.35,1.333,"MANSTON, UK"
03803099999,49.9166667,-6.3,"SCILLY SAINT MARY S, UK"
03808099999,50.2166666,-5.3166666,"CAMBORNE, UK"
03809099999,50.086092,-5.255711,"CULDROSE, UK"
03823099999,50.5,-4.6666666,"CARDINHAM BODMIN, UK"
03827099999,50.35,-4.1166667,"PLYMOUTH MOUNTBATTE, UK"
03827399999,50.422778,-4.105833,"PLYMOUTH, UK"
03839099999,50.734444,-3.413889,"EXETER, UK"
03840099999,50.8666666,-3.2333333,"DUNKESWELL AERODROME, UK"
03853099999,51.009358,-2.638819,"YEOVILTON, UK"
03857099999,50.5166666,-2.45,"ISLE OF PORTLAND, UK"
03862099999,50.78,-1.8425,"BOURNEMOUTH, UK"
03865099999,50.950261,-1.356803,"SOUTHAMPTON, UK"
03866099999,50.5833333,-1.3,"WIGHT ST. CATHERINES POINT, UK"
03872099999,50.8166666,-0.9166666,"THORNEY ISLAND, UK"
03874099999,50.8,-1.2166666,"SOLENT, UK"
03876099999,50.835556,-0.297222,"SHOREHAM, UK"
03882099999,50.9,0.3166666,"HERSTMONCEUX WEST END, UK"
03887399999,50.956111,0.939167,"LYDD, UK"
03891599999,49.706111,-2.214722,"ALDERNEY, GK"
03894099999,49.434956,-2.601969,"GUERNSEY, GK"
03895099999,49.207947,-2.195508,"JERSEY, JE"
03896099999,49.2,-2.1,"ST. HELIER, UK"
03903099999,54.4,-7.65,"ST ANGELO, UK"
03904099999,54.7,-7.5833333,"CASTLEDERG, UK"
03908099999,55.0666666,-7.0166666,"BALLYKELLY, UK"
03908499999,55.042778,-7.161111,"LONDONDERRY EGLINTON, UK"
03911099999,54.7166666,-6.8166666,"LOUGH FEA, UK"
03915099999,54.8666666,-6.45,"PORTGLENONE, UK"
03916099999,55.1833333,-6.1666666,"BALLYPATRICK FOREST, UK"
03917099999,54.6575,-6.215833,"ALDERGROVE, UK"
03923099999,54.2333333,-6.5,"GLENANNE NUMBER 2, UK"
03924099999,54.618056,-5.8725,"CITY, UK"
03951099999,51.4666666,-9.4166666,"SHERKIN ISLAND, EI"
03952099999,51.8,-8.25,"ROCHES POINT, EI"
03953099999,51.9333333,-10.25,"VALENTIA OBSERVATORY, EI"
03955099999,51.841269,-8.491111,"CORK, EI"
03956099999,52.2833333,-6.4833333,"JOHNSTOWN CASTLE, EI"
03961099999,52.85,-6.9,"OAK PARK CARLOW, EI"
03962099999,52.701978,-8.924817,"SHANNON, EI"
03963099999,53.3166666,-9.9,"MACE HEAD, EI"
03966099999,53.0166666,-8.0,"GURTEEN, EI"
03967099999,53.301667,-6.451333,"CASEMENT, EI"
03969099999,53.421333,-6.270075,"DUBLIN, EI"
03970099999,53.7166666,-8.9833333,"CLAREMORRIS, EI"
03971099999,53.5333333,-7.3666666,"MULLINGAR, EI"
03973099999,53.910297,-8.818492,"CONNAUGHT, EI"
03976099999,54.2333333,-10.0,"BELMULLET, EI"
03978099999,54.4833333,-8.2333333,"FINNER, EI"
03979099999,54.05,-7.3,"BALLYHAISE, EI"
03980099999,55.3666666,-7.3333333,"MALIN HEAD, EI"
04005099999,66.15,-23.25,"BOLUNGAVIK, IC"
04007099999,65.8666666,-23.6,"HOLAR I DYRAFIRDI, IC"
04013099999,65.0833333,-22.7333333,"STYKKISHOLMUR, IC"
04018016201,63.96667,-22.6,"KEFLAVIK, IC"
04030099999,64.13,-21.940556,"REYKJAVIK, IC"
04038099999,63.8666666,-21.15,"EYRARBAKKI, IC"
04048099999,63.424303,-20.278875,"VESTMANNAEYJAR, IC"
04053099999,65.7,-19.6166666,"BERGSTADIR, IC"
04063099999,65.659994,-18.072703,"AKUREYRI, IC"
04064099999,63.7833333,-18.0666666,"KIRKJUBAEJARKLAUSTUR, IC"
04073099999,65.6333333,-16.1166666,"GRIMSSTADIR, IC"
04082099999,64.295556,-15.227222,"HORNAFJORDUR, IC"
04085099999,65.75,-14.8333333,"SKJALDTHINGSSTADIR, IC"
04089099999,65.283333,-14.401389,"EGILSSTADIR, IC"
04097099999,65.2666666,-13.5833333,"DALATANGI, IC"
04104099999,64.9,-23.9333333,"GUFUSKALAR, IC"
04115099999,65.7,-23.0833333,"DYNJANDIHEIDI, IC"
04123099999,66.4166666,-22.3833333,"HORNBJARGSVITI, IC"
04127099999,66.1666666,-23.25,"BOLUNGARVIK, IC"
04130099999,64.1333333,-21.9,"REYKJAVIK, IC"
04137099999,65.6833333,-18.1166666,"AKUREYRI A, IC"
04145099999,65.6666666,-20.3,"BLONDUOS, IC"
04146099999,63.4333333,-20.2833333,"VESTMANNAEYJABAER, IC"
04156099999,64.8666666,-19.5666666,"HVERAVELLIR, IC"
04165099999,66.5333333,-18.0166666,"GRIMSEY, IC"
04176099999,64.9333333,-15.7833333,"KARAHNJUKAR, IC"
04183099999,66.3833333,-14.5333333,"FONTUR, IC"
04197099999,65.2666666,-13.5833333,"DALATANGI, IC"
04202099999,76.531203,-68.703161,"THULE AIR BASE, GL"
04202199999,68.717,-52.8,"AASIAAT MITTARFIA, GL"
04202299999,69.233,-51.067,"JAKOBSHAVN LUFTHAVN, GL"
04202399999,70.7333333,-52.7,"QAARSUT MITTARFIA, GL"
04202499999,66.95,-53.7333333,"SISIMIUT, GL"
04202599999,72.783,-56.167,"UPERNAVIK, GL"
04203099999,76.6333333,-73.0,"KITSISSUT CAREY OEER, GL"
04204099999,65.417,-52.933,"MANIITSOQ, GL"
04205099999,77.4833333,-69.3833333,"MITTARFIK QAANAAQ, GL"
04208099999,74.0333333,-57.8166666,"KITSISSORSUIT EDDERFUGLE OEER, GL"
04211099999,72.7833333,-56.1333333,"MITTARFIK UPERNAVIK UPERNAVIK LUFTHAVN, GL"
04214099999,70.6833333,-54.6166666,"NUUSSUAATAA NUUSSUAQ, GL"
04220099999,68.7,-52.85,"AASIAAT EGEDESMINDE, GL"
04221599999,77.4666666,-69.2166666,"QAANAAQ, GL"
04228099999,67.7833333,-53.9666666,"KITSISSUT ATTU, GL"
04231099999,67.016969,-50.689325,"SONDRE STROMFJORD, GL"
04234099999,66.95,-53.7166666,"SISIMIUT MITTARFIA HOLSTEINSBORG LUFTHA, GL"
04242099999,65.0166666,-52.55,"SIORALIK, GL"
04250099999,64.1666666,-51.75,"NUUK GODTHAAB, GL"
04253099999,62.5666666,-50.4166666,"UKIIVIK FREDERIKSHAAB ISBLINK, GL"
04260599999,61.9833333,-49.7,"FREDICKSHAB PAAMIUT AIRPORT, GL"
04266099999,60.75,-48.45,"NUNARSUIT, GL"
04270099999,61.160517,-45.425978,"NARSARSUAQ, GL"
04272099999,60.7166667,-46.05,"JULIANEHAAB, GL"
04285099999,59.9833333,-45.2,"ANGISOQ, GL"
04301099999,83.65,-33.3666666,"KAP MORRIS JESUP, GL"
04312099999,81.6,-16.65,"STATION NORD AWS, GL"
04313099999,80.65,-13.7166666,"HENRIK KROEYER HOLME, GL"
04320099999,76.7666667,-18.6666667,"DANMARKSHAVN PORT, GL"
04330099999,74.3,-20.2166667,"DANEBORG AUT, GL"
04339099999,70.4833333,-21.95,"SCORESBYSUND, GL"
04341099999,70.75,-22.65,"CONSTABLE POINT, GL"
04351099999,67.7833333,-32.2833333,"APUTITEEQ, GL"
04360099999,65.6,-37.6333333,"TASIILAQ, GL"
04361099999,65.5833333,-37.15,"KULUSUK LUFTHAVN, GL"
04373099999,64.7833333,-40.3,"IKERMIIT, GL"
04382099999,61.9333333,-42.0666666,"IKERMIUARSUK, GL"
04390099999,60.0333333,-43.1166667,"PRINS CHRISTIAN, GL"
04416099999,72.5833333,-38.45,"SUMMIT, GL"
06005099999,62.1,-7.6833333,"MYKINES, DA"
06009099999,61.4,-6.6666666,"AKRABERG, DA"
06010099999,62.063628,-7.277219,"VAGAR, FO"
06011099999,62.0166666,-6.7666666,"TORSHAVN, DA"
06016099999,55.5,7.8666666,"HORNS REV A, FO"
06017099999,55.60017,7.623806,"HORNS REV B HELIDECK, DA"
06019099999,56.9333333,8.6333333,"SILSTRUP, DA"
06021099999,57.1166666,8.6,"HANSTHOLM, DA"
06022099999,55.72,4.8,"TYRA OST, DA"
06030099999,57.092789,9.849164,"FLYVESTATION AALBORG, DA"
06031099999,57.1833333,9.95,"TYLSTRUP, DA"
06032099999,57.3833333,10.3333333,"STENHOJ, DA"
06033099999,57.6,9.9666666,"HIRTSHALS, DA"
06034099999,57.503525,10.229372,"SINDAL, DA"
06041099999,57.7333333,10.6333333,"SKAGEN, DA"
06044099999,56.9833333,10.3166666,"HALS, DA"
06049099999,56.5666666,10.1,"HALD V, DA"
06052099999,56.7,8.2166666,"THYBOROEN, DA"
06055099999,56.3666666,8.1166666,"TORSMINDE, DA"
06058099999,56.0,8.15,"HVIDE SANDE, DA"
06060099999,56.297458,9.124628,"KARUP, DA"
06066099999,55.990122,8.353906,"STAUNING, DA"
06069099999,56.5,9.5666666,"FOULUM, DA"
06070099999,56.300017,10.619008,"AARHUS, DA"
06074099999,56.0833333,10.1333333,"AARHUS SYD, DA"
06079099999,56.7166666,11.5166666,"ANHOLT, DA"
06080099999,55.525942,8.553403,"ESBJERG, DA"
06081099999,55.55,8.0833333,"BLAAVANDSHUK, DA"
06086099999,55.5833333,8.25,"OKSBOEL, DA"
06096099999,55.1833333,8.5666666,"ROEMOE JUVRE, DA"
06104099999,55.740322,9.151778,"BILLUND, DA"
06108099999,55.436283,9.330925,"KOLDING VAMDRUP, DA"
06110099999,55.225553,9.263931,"SKRYDSTRUP, DA"
06118099999,54.964367,9.791731,"SONDERBORG, DA"
06119099999,54.85,9.9833333,"KEGNAES, DA"
06120099999,55.476664,10.330933,"ODENSE, DA"
06123099999,55.25,9.8833333,"ASSENS TOROE, DA"
06124099999,55.0166667,10.5666667,"SYDFYNS TASINGE ISL, DA"
06136099999,55.25,11.3333333,"TYSTOFTE, DA"
06138099999,54.8166666,11.0,"LANGOE, DA"
06141099999,54.8333333,11.3333333,"ABED, DA"
06147099999,54.8833333,12.1833333,"VINDEBAEK KYST, DA"
06149099999,54.5666666,11.95,"GEDSER, DA"
06151099999,55.1666666,11.1333333,"OMOE, DA"
06156099999,55.7333333,11.6,"HOLBAEK, DA"
06159099999,55.75,10.8666666,"ROESNAES, DA"
06165099999,56.2,11.7166666,"HESSELOE, DA"
06168099999,56.1166666,12.35,"NAKKEHOVED, DA"
06169099999,56.0166666,11.2833333,"GNIBEN, DA"
06170099999,55.585567,12.131428,"ROSKILDE, DA"
06174099999,55.4,12.15,"TESSEBOELLE, DA"
06180099999,55.617917,12.655972,"KASTRUP, DA"
06181099999,55.7666666,12.5333333,"JAEGERSBORG, DA"
06183099999,55.5333333,12.7166666,"DROGDEN, DA"
06190099999,55.063267,14.759558,"BORNHOLM RONNE, DA"
06193099999,55.3,14.7666666,"HAMMER ODDE FYR, DA"
06197099999,55.05,15.1,"NEXOE VEST, DA"
06201099999,54.3166666,2.9333333,"D15 FA 1 HELIPAD OIL PLATFORM, NL"
06203099999,52.3666666,3.35,"P11 B DE RUYTER, NL"
06204099999,53.2666666,3.6333333,"K14 FA 1C, NL"
06205099999,55.4166666,3.8166666,"A12 CPP HELIPAD OIL PLATFORM, NL"
06206099999,54.1166666,4.0166666,"F16 A, NL"
06207099999,53.6166666,4.9666666,"L9 FF 1, NL"
06208099999,53.5,5.95,"AWG 1, NL"
06209099999,52.4666666,4.5166666,"IJMOND, NL"
06210099999,52.1666666,4.4333333,"VALKENBURG, NL"
06211099999,53.8166666,2.95,"J6 A HELIPAD OIL PLATFORM, NL"
06212099999,52.9166666,4.15,"HOORN A HELIPAD OIL PLATFORM, NL"
06225099999,52.4666666,4.5666666,"IJMUIDEN, NL"
06229099999,53.0,4.7166666,"TEXELHORS WP, NL"
06235099999,52.923353,4.780625,"DE KOOIJ, NL"
06239099999,54.85,4.7333333,"F3 NETHERLANDS, NL"
06240099999,52.308613,4.763889,"SCHIPHOL, NL"
06242099999,53.25,4.9166667,"VLIELAND ISLAND, NL"
06248099999,52.6333333,5.1666666,"WIJDENES, NL"
06249099999,52.65,4.9833333,"BERKHOUT, NL"
06251099999,53.4,5.35,"TERSCHELLING HOORN AWS, NL"
06252099999,53.2166666,3.2166666,"K13 A, NL"
06257099999,52.5,4.6,"WIJK AAN ZEE, NL"
06258099999,52.65,5.4,"HOUTRIBDIJK, NL"
06260099999,52.1,5.1833333,"DE BILT, NL"
06267099999,52.9,5.3833333,"STAVOREN AWS, NL"
06269099999,52.460278,5.527222,"LELYSTAD, NL"
06269399999,51.45,3.6,"VLISSINGEN, NL"
06270099999,53.228611,5.760556,"LEEUWARDEN, NL"
06273099999,52.7,5.8833333,"MARKNESSE AWS, NL"
06275099999,52.060556,5.873056,"DEELEN, NL"
06277099999,53.4166666,6.2,"LAUWERSOOG AWS, NL"
06278099999,52.4333333,6.2666666,"HEINO AWS, NL"
06279099999,52.7333333,6.5730556,"HOOGEVEEN AWS, NL"
06280099999,53.11972,6.579444,"EELDE, NL"
06283099999,52.0666666,6.65,"HUPSEL AWS, NL"
06285099999,53.5666666,6.4,"HUIBERTGAT WP, NL"
06286099999,53.2,7.15,"NIEUW BEERTA, NL"
06290099999,52.27,6.874167,"TWENTHE, NL"
06308099999,51.3833333,3.3833333,"CADZAND WP, NL"
06310099999,51.45,3.6,"VLISSINGEN, NL"
06311099999,51.3666666,3.6666666,"HOOFDPLAAT, NL"
06312099999,51.7666666,3.6166666,"OOSTERSCHELDE WP, NL"
06313099999,51.5,3.25,"VLAKTE VAN RAAN, NL"
06315099999,51.4333333,4.0166666,"HANSWEERT, NL"
06316099999,51.65,3.7,"OOSTERSCHELDE 4, NL"
06319099999,51.2333333,3.8666666,"WESTDORPE, NL"
06320099999,51.9333333,3.6666666,"LE GOEREE, NL"
06321099999,52.0,3.2833333,"EURO PLATFORM, NL"
06323099999,51.5333333,3.8833333,"WILHELMINADORP AWS, NL"
06324099999,51.6,4.0,"STAVENISSE, NL"
06330099999,51.9833333,4.1,"HOEK VAN HOLLAND, NL"
06331099999,51.4833333,4.2,"MAROLLEGAT, NL"
06340099999,51.449092,4.342031,"WOENSDRECHT, NL"
06343099999,51.9,4.3166666,"ROTTERDAM GEULHAVEN AWS, NL"
06344099999,51.956944,4.437222,"ROTTERDAM, NL"
06348099999,51.9666666,4.9333333,"CABAUW TOWER, NL"
06350099999,51.567389,4.931833,"GILZE RIJEN, NL"
06356099999,51.85,5.1333333,"HERWIJNEN AWS, NL"
06370099999,51.450139,5.374528,"EINDHOVEN, NL"
06375099999,51.656389,5.708611,"VOLKEL, NL"
06377099999,51.2,5.7666666,"ELL AWS, NL"
06380099999,50.911658,5.770144,"MAASTRICHT, NL"
06391099999,51.5,6.2,"ARCEN AWS, NL"
06400099999,51.090278,2.652778,"KOKSIJDE, BE"
06407099999,51.198889,2.862222,"OOSTENDE, BE"
06414099999,50.9,3.1166666,"BEITEM, BE"
06418099999,51.35,3.2,"ZEEBRUGGE, BE"
06428099999,50.9333333,3.6666666,"SEMMERZAKE, BE"
06431099999,51.1833333,3.8,"GENT INDUSTRIE ZONE, BE"
06432099999,50.575833,3.831,"CHIEVRES AB, BE"
06432499999,50.6333333,5.45,"LIEGE, BE"
06432599999,50.5,3.98,"CASTEAU HELI MET, BE"
06434099999,50.9833333,3.8166666,"MELLE, BE"
06447099999,50.8,4.35,"UCCLE, BE"
06449099999,50.459197,4.453817,"BRUSSELS SOUTH, BE"
06450099999,51.189444,4.460278,"DEURNE, BE"
06450599999,50.8833333,4.5166666,"BRUSSELLS MIL, BE"
06451099999,50.901389,4.484444,"BRUSSELS NATIONAL, BE"
06455099999,50.1,4.6,"DOURBES, BE"
06456099999,50.243333,4.645833,"FLORENNES, BE"
06458099999,50.75861,4.768333,"BEAUVECHAIN, BE"
06459099999,50.5833333,4.6833333,"ERNAGE, BE"
06464099999,51.2166666,5.0333333,"RETIE, BE"
06465099999,51.0,5.0666667,"SCHAFFEN, BE"
06472099999,50.2,5.25,"HUMAIN, BE"
06476099999,50.035833,5.404167,"SAINT HUBERT MIL, BE"
06476599999,50.0333333,5.4,"SAINT HUBERT, BE"
06477099999,50.9166666,5.45,"DIEPENBEEK, BE"
06478099999,50.637417,5.443222,"LIEGE, BE"
06479099999,51.168333,5.47,"KLEINE BROGEL, BE"
06484099999,49.6166666,5.5833333,"BUZENOL, BE"
06490099999,50.4833333,5.9166667,"SPA LA SAUVENIERE, BE"
06490199999,50.9333333,3.65,"SEMMERZAKE BAFB, BE"
06494099999,50.5166666,6.0666666,"MONT RIGI, BE"
06496099999,50.4666667,6.1833333,"ELSENBORN MIL, BE"
06590099999,49.626575,6.211517,"LUXEMBOURG, LU"
06601099999,47.55,7.5833333,"BASEL BINNINGEN, SZ"
06604099999,47.0,6.95,"NEUCHATEL AUT, SZ"
06604599999,47.08385,6.792836,"LES EPLATURES, SZ"
06605099999,47.1333333,7.0666666,"CHASSERAL, SZ"
06609099999,46.55,7.0166666,"LE MOLESON, SZ"
06609999999,47.398644,8.648231,"DUBENDORF, SZ"
06610099999,46.8166666,6.95,"PAYERNE, SZ"
06612099999,47.0833333,6.8,"LA CHAUX DE FONDS, SZ"
06613099999,47.092369,8.305117,"EMMEN, SZ"
06614099999,46.743333,8.11,"MEIRINGEN, SZ"
06616099999,47.4333333,6.95,"FAHY BONCOURT, SZ"
06619099999,46.8333333,6.5833333,"BULLET LA FRETAZ, SZ"
06620099999,47.6833333,8.6166666,"SCHAFFHAUSEN, SZ"
06621099999,47.6,9.2833333,"GUETTINGEN, SZ"
06626099999,47.3666666,7.9833333,"GOESGEN, SZ"
06628099999,46.75,7.2666666,"PLAFFEIEN, SZ"
06630399999,46.9141,7.497153,"BERN BELP, SZ"
06630499999,46.534075,9.884106,"SAMEDAN, SZ"
06631099999,46.9833333,7.4666666,"BERN ZOLLIKOFEN, SZ"
06633099999,47.3833333,8.0833333,"BUCHS AARAU, SZ"
06636099999,46.9833333,7.2833333,"MUEHLEBERG, SZ"
06639099999,47.0,7.9333333,"NAPF, SZ"
06643099999,47.25,7.7833333,"WYNAU, SZ"
06645099999,47.4333333,7.8833333,"RUENENBERG, SZ"
06646099999,47.5666666,8.2333333,"BEZNAU, SZ"
06650099999,47.0333333,8.3,"LUZERN, SZ"
06655099999,46.8166666,8.4166666,"ENGELBERG, SZ"
06658099999,46.943889,8.284167,"ALPNACH, SZ"
06659099999,46.9833333,8.25,"PILATUS, SZ"
06660099999,47.3833333,8.5666666,"ZUERICH FLUNTERN, SZ"
06662199999,47.181628,7.417189,"GRENCHEN, SZ"
06664099999,47.4333333,8.5166666,"ZUERICH AFFOLTERN, SZ"
06666099999,47.6,8.1833333,"LEIBSTADT, SZ"
06669099999,47.4833333,8.4,"LAEGEREN, SZ"
06670099999,47.464722,8.549167,"ZURICH, SZ"
06672099999,46.8666666,8.6333333,"ALTDORF, SZ"
06673099999,47.2166666,8.6833333,"WAEDENSWIL, SZ"
06679099999,47.4833333,8.9,"AADORF TAENIKON, SZ"
06680099999,47.25,9.35,"SAENTIS, SZ"
06681099999,47.4333333,9.4,"ST. GALLEN, SZ"
06681199999,47.485033,9.560775,"ST GALLEN ALTENRHEIN, SZ"
06685099999,47.0333333,9.0666666,"GLARUS, SZ"
06689099999,47.3666666,8.95,"HOERNLI, SZ"
06700099999,46.238064,6.10895,"GENEVA COINTRIN, SZ"
06702099999,46.4333333,6.1,"LA DOLE, SZ"
06704099999,46.5166666,6.3333333,"BIERE, SZ"
06705099999,46.4,6.2333333,"NYON CHANGINS, SZ"
06711099999,46.5166666,6.6666666,"PULLY, SZ"
06712099999,46.3333333,6.9166666,"AIGLE, SZ"
06717099999,45.8666666,7.1666666,"COL DU GRAND ST BERNARD, SZ"
06720099999,46.219592,7.326764,"SION, SZ"
06720599999,46.22,7.32,"SION, SZ"
06722099999,46.1166666,7.5166666,"EVOLENE VILLAZ, SZ"
06724099999,46.3,7.4666666,"MONTANA, SZ"
06727099999,46.3,7.85,"VISP, SZ"
06730099999,46.55,7.9833333,"JUNGFRAUJOCH, SZ"
06734099999,46.6666666,7.8666666,"INTERLAKEN, SZ"
06735099999,46.5,7.5666666,"ADELBODEN, SZ"
06744099999,46.5666666,8.3333333,"GRIMSEL HOSPIZ, SZ"
06745099999,46.5,8.3166666,"ULRICHEN, SZ"
06747099999,45.95,7.8166666,"MONTE ROSA, SZ"
06748099999,46.0333333,7.75,"ZERMATT, SZ"
06750099999,46.65,8.6166666,"GUETSCH OB ANDERMATT, SZ"
06751099999,46.45,8.5166666,"ROBIEI, SZ"
06753099999,46.5166666,8.6833333,"PIOTTA, SZ"
06756099999,46.4666666,8.9333333,"ACQUAROSSA COMPROVASCO, SZ"
06759099999,46.2,8.8,"CIMETTA, SZ"
06760099999,46.1666666,8.7833333,"LOCARNO MONTI, SZ"
06762099999,46.17,8.88,"LOCARNO MAGADINO, SZ"
06770099999,46.004275,8.910578,"LUGANO, SZ"
06771099999,45.85,8.9333333,"STABIO, SZ"
06780099999,46.8333333,9.8166666,"WEISSFLUHJOCH, SZ"
06782099999,46.7,8.85,"DISENTIS SEDRUN, SZ"
06783099999,46.4666666,9.1833333,"S BERNARDINO, SZ"
06784099999,46.8166666,9.85,"DAVOS, SZ"
06786099999,46.8666666,9.5333333,"CHUR, SZ"
06787099999,46.6166666,9.4333333,"ANDEER, SZ"
06788199999,46.5166666,9.1833333,"HINTERRHIEN, SZ"
06791099999,46.4166666,9.8166666,"PIZ CORVATSCH, SZ"
06792099999,46.5333333,9.8833333,"SAMEDAM, SZ"
06794099999,46.35,10.0666666,"POSCHIAVO ROBBIA, SZ"
06798099999,46.8,10.2833333,"SCUOL, SZ"
06806599999,46.9666666,8.4,"BUOCHS AIRPORT STANS, SZ"
06842099999,47.5166666,9.2666666,"SITTERDORF, SZ"
06846099999,46.7166666,9.5166666,"SCALOTTAS, SZ"
06847099999,46.7833333,8.05,"BRIENZER ROTHORN, SZ"
06848099999,46.9333333,9.5022222,"PFAEFERS, SZ"
06990099999,47.1333333,9.5166666,"VADUZ, LS"
07002099999,50.7333333,1.6,"BOULOGNE, FR"
07003099999,50.514747,1.627339,"LE TOUQUET PARIS PLAGE, FR"
07004099999,50.8666666,1.5833333,"CAP GRIS NEZ, FR"
07005099999,50.143492,1.831892,"ABBEVILLE, FR"
07010099999,51.05,2.3333333,"DUNKERQUE, FR"
07015099999,50.561942,3.089444,"LESQUIN, FR"
07016099999,50.333,3.0,"VITRY EN ARTOIS, FR"
07017099999,50.221814,3.154236,"EPINOY, FR"
07019099999,49.7,-1.2666667,"BARFLEUR POINT, FR"
07020099999,49.7166666,-1.9333333,"LA HAGUE, FR"
07022099999,49.65,-1.5,"VIGITE DU HAUMET, FR"
07024099999,49.650106,-1.470281,"MAUPERTUS, FR"
07027099999,49.173333,-0.45,"CARPIQUET, FR"
07028099999,49.533889,0.088056,"OCTEVILLE, FR"
07029099999,49.35,-0.7666666,"PORT EN BESSIN, FR"
07031099999,49.365339,0.154306,"ST GATIEN, FR"
07034099999,49.3666667,-1.8,"CARTERET, FR"
07037099999,49.384172,1.1748,"VALLEE DE SEINE, FR"
07038034061,49.017,1.217,"EVREUX, FR"
07040099999,49.9333333,1.1,"DIEPPE, FR"
07046099999,49.5333333,0.0833333,"LE HAVRE OCTEVILLE, FR"
07053099999,49.0833333,2.0333333,"CORMEILLES, FR"
07055099999,49.454444,2.112778,"TILLE, FR"
07057099999,49.253547,2.519139,"CREIL, FR"
07059099999,49.9666666,2.7038889,"MEAULTE, FR"
07061099999,49.8166667,3.2,"ST. QUENTIN ROUPY, FR"
07070099999,49.31,4.05,"CHAMPAGNE, FR"
07075099999,49.783942,4.647078,"CHARLEVILLE MEZIERES, FR"
07090099999,49.071667,6.131667,"FRESCATY, FR"
07093099999,48.982142,6.251319,"METZ NANCY LORRAINE, FR"
07100099999,48.4833333,-5.05,"OUESSANT, FR"
07102099999,48.3333333,-4.7666666,"POINTE ST MATHIEU, FR"
07103099999,48.0333333,-4.7333333,"POINTE DU RAZ, FR"
07106099999,48.530258,-4.151642,"LANDIVISIAU, FR"
07107099999,48.6833333,-4.3333333,"BRIGNOGAN, FR"
07109099999,48.281703,-4.445017,"POULMIC, FR"
07110099999,48.447911,-4.418539,"GUIPAVAS, FR"
07116099999,48.75,-4.0166667,"BATZ ISLAND, FR"
07117099999,48.8333333,-3.4666666,"PLOUMANAC H PERROS GUIREC, FR"
07118099999,48.754378,-3.471656,"LANNION, FR"
07120099999,48.537777,-2.854445,"ARMOR, FR"
07125099999,48.587778,-2.08,"PLEURTUIT, FR"
07130099999,48.069508,-1.734794,"ST JACQUES, FR"
07133099999,48.8333333,-1.6166667,"POINTE DU ROC, FR"
07134099999,48.0333333,-0.7333333,"LAVAL ETRONNIER, FR"
07139099999,48.45,0.1166667,"ALENCON VALFRAMBERT, FR"
07140099999,48.058142,1.376625,"CHATEAUDUN, FR"
07143099999,48.4666667,1.5166667,"CHARTRES CHAMPOL, FR"
07145099999,48.7666666,2.0,"TRAPPES, FR"
07146099999,48.751922,2.106189,"TOUSSUS LE NOBLE, FR"
07147099999,48.774406,2.201536,"VELIZY, FR"
07150099999,48.969444,2.441389,"LE BOURGET, FR"
07153099999,48.604725,2.671119,"VILLAROCHE, FR"
07156099999,48.8166666,2.3333333,"PARIS MONTSOURIS, FR"
07157099999,49.012779,2.55,"CHARLES DE GAULLE, FR"
07165099999,48.776072,4.184492,"VATRY, FR"
07168099999,48.322136,4.016703,"BARBEREY, FR"
07169099999,48.636008,4.899417,"ROBINSON, FR"
07179034051,48.783,5.983,"TOUL ROSIERES, FR"
07180099999,48.692069,6.230458,"ESSEY, FR"
07181099999,48.583056,5.955,"OCHEY, FR"
07190099999,48.538319,7.628233,"ENTZHEIM, FR"
07200099999,47.8,-4.3666666,"PENMARCH, FR"
07201099999,47.974981,-4.167786,"PLUGUFFAN, FR"
07203099999,47.65,-3.5,"BEG MELEN, FR"
07205099999,47.760555,-3.44,"LANN BIHOUE, FR"
07207099999,47.3,-3.2183333,"BELLE ILE LE TALUT, FR"
07208099999,47.5,-3.1166666,"QUIBEKON ST JULIEN, FR"
07216099999,47.2333333,-2.3,"CHEMOULIN, FR"
07217099999,47.312189,-2.149181,"MONTOIR, FR"
07222099999,47.153189,-1.610725,"NANTES ATLANTIQUE, FR"
07230099999,47.4833333,-0.6,"BEAUCOUZE, FR"
07235099999,47.948611,0.201667,"ARNAGE, FR"
07240099999,47.432222,0.727606,"VAL DE LOIRE, FR"
07245099999,47.678492,1.208844,"LE BREUIL, FR"
07247099999,47.3166667,1.6833333,"ROMORANTIN PRUNIERS, FR"
07249099999,47.987778,1.760556,"BRICY, FR"
07255099999,47.058056,2.370278,"BOURGES, FR"
07255399999,47.039014,5.42725,"TAVAUX, FR"
07255499999,47.053333,2.6325,"AVORD, FR"
07257099999,47.05,2.65,"AVORD, FR"
07260099999,47.002625,3.113333,"FOURCHAMBAULT, FR"
07266099999,47.850193,3.497111,"BRANCHES, FR"
07283099999,47.85,5.3333333,"LANGRES, FR"
07288099999,47.25,5.9833333,"BESANCON THISE AUT, FR"
07292099999,47.783131,6.364056,"SAINT SAUVEUR, FR"
07296099999,47.5916667,6.8333333,"DORANS, FR"
07299099999,47.589583,7.529914,"BALE MULHOUSE, FR"
07300099999,46.7,-2.3333333,"SAINT SAUVEUR, FR"
07306099999,46.701944,-1.378625,"LES AJONCS, FR"
07311099999,46.25,-1.5666667,"POINTE DES BALEINES, FR"
07314099999,46.05,-1.4166666,"CHASSIRON, FR"
07315099999,46.15,-1.15,"LA ROCHELLE, FR"
07316099999,46.179167,-1.195278,"ILE DE RE, FR"
07317099999,44.4333333,-1.25,"BISCAROSSE PARENTIS, FR"
07317599999,49.971531,2.697661,"BRAY, FR"
07330099999,46.311303,-0.401503,"SOUCHE, FR"
07335099999,46.587745,0.306666,"BIARD, FR"
07354034048,46.867,1.717,"CHATEAURROUX DEOLS, FR"
07360099999,46.1666666,1.8666666,"GUERET, FR"
07374099999,46.169689,3.403736,"CHARMEIL, FR"
07379099999,46.412536,4.013264,"SAINT YAN, FR"
07385099999,46.295103,4.795767,"CHARNAY, FR"
07386099999,47.0333333,5.4166666,"DOLE TAVAUX, FR"
07390199999,47.560278,-0.312222,"MARCE, FR"
07412099999,45.658333,-0.3175,"CHATEAUBERNARD, FR"
07420099999,45.7166666,0.2166666,"CHAMPNIERS, FR"
07434099999,45.862778,1.179444,"BELLEGARDE, FR"
07438099999,45.150833,1.469167,"LA ROCHE, FR"
07460099999,45.786661,3.169169,"AUVERGNE, FR"
07471099999,45.080689,3.762889,"LOUDES, FR"
07475099999,45.540554,4.296389,"BOUTHEON, FR"
07476099999,43.9073,4.901831,"CAUMONT, FR"
07476599999,49.096647,2.040833,"CORMEILLES EN VEXIN, FR"
07477099999,45.9333333,4.3833333,"LES SAUVAGES, FR"
07480099999,45.727172,4.944275,"BRON, FR"
07481099999,45.726387,5.090833,"SAINT EXUPERY, FR"
07482099999,45.987335,5.328445,"AMBERIEU, FR"
07484099999,45.0666666,5.5166666,"VILLARS DE LANS, FR"
07485099999,45.1666666,5.7666666,"GRENOBLE, FR"
07486099999,45.362944,5.329375,"SAINT GEOIRS, FR"
07487099999,45.22,5.85,"GRENONBLE LVD, FR"
07489099999,45.3,5.867,"SAINT PANCRASSE, FR"
07490099999,45.929233,6.098764,"MEYTHET, FR"
07491099999,45.63805,5.880225,"AIX LES BAINS, FR"
07494099999,45.9333333,6.1,"ANNECY MEYTHET, FR"
07496099999,45.2166667,6.7166667,"MODANE AVRIEUX, FR"
07497099999,45.6166666,6.7666666,"BOURG ST MAURICE, FR"
07499099999,45.917833,6.866167,"CHAMONIX OBS, FR"
07500099999,44.6333333,-1.25,"CAP FERRET, FR"
07502099999,44.533333,-1.125,"CAZAUX, FR"
07503099999,44.4333333,-1.25,"BISCAROSSE PARENTIS, FR"
07510099999,44.828335,-0.715556,"MERIGNAC, FR"
07524099999,44.174721,0.590556,"LA GARENNE, FR"
07530099999,44.825279,0.518611,"ROUMANIERE, FR"
07535099999,44.75,1.4,"GOURDON, FR"
07540099999,44.025694,1.378042,"MONTAUBAN, FR"
07549099999,44.891388,2.421944,"AURILLAC, FR"
07552099999,44.407869,2.482672,"MARCILLAC, FR"
07554099999,44.5333333,3.45,"MENDE, FR"
07558099999,44.1166666,3.0166666,"MILLAU, FR"
07560099999,44.1166666,3.5833333,"MONT AIGOUAL, FR"
07563099999,43.9,4.9,"AVIGNON, FR"
07570099999,44.5333333,4.3666666,"LANAS SYN, FR"
07577099999,44.5833333,4.7333333,"MONTELIMAR ANCONE, FR"
07579099999,44.140481,4.866717,"CARITAT, FR"
07586099999,44.0833333,5.05,"CARPENTRAS, FR"
07588099999,44.0666667,6.0,"ST AUBAN SUR DURANC, FR"
07589099999,44.946667,6.188333,"ST CHRISTOPHE, FR"
07590099999,44.81,6.195333,"LES PORTES EN VALGAUDEMAR, FR"
07591099999,44.5666666,6.5,"EMBRUN, FR"
07592099999,44.667,6.65,"GUILLESTRE, FR"
07593099999,44.9166667,6.65,"BRIANCON, FR"
07600099999,43.4,-1.6833333,"SOCOA, FR"
07602099999,43.468419,-1.523325,"ANGLET, FR"
07603099999,43.6833333,-1.0666667,"DAX SEYRESSE, FR"
07607099999,43.911667,-0.5075,"MONT DE MARSAN, FR"
07610099999,43.38,-0.418611,"PAU PYRENEES, FR"
07621099999,43.178675,-0.006439,"LOURDES, FR"
07622099999,43.687778,0.601667,"LAMOTHE, FR"
07627099999,43.007764,1.10315,"ANTICHAN, FR"
07628099999,43.45,1.25,"MURET LHERM, FR"
07629399999,43.448891,1.263333,"LHERM, FR"
07630099999,43.629075,1.363819,"BLAGNAC, FR"
07631099999,43.545555,1.3675,"FRANCAZAL, FR"
07632099999,43.913887,2.113056,"LE SEQUESTRE, FR"
07635099999,43.215978,2.306317,"SALVAZA, FR"
07638099999,43.3166666,3.35,"BEZIERS VIAS, FR"
07641099999,43.4,3.7,"SETE, FR"
07641599999,43.323522,3.353903,"VIAS, FR"
07643099999,43.576194,3.963014,"MEDITERRANEE, FR"
07645099999,43.8666667,4.4,"NIMES COURBESSAC, FR"
07646099999,43.757444,4.416347,"GARONS, FR"
07647099999,43.522736,4.923844,"LE TUBE, FR"
07648099999,43.606415,5.10925,"SALON, FR"
07650099999,43.435555,5.213611,"PROVENCE, FR"
07653099999,43.3333333,5.05,"CAP COURONNE, FR"
07656099999,43.1833333,5.5833333,"BEC DE LAIGLE, FR"
07660099999,43.1,5.9333333,"TOULON, FR"
07661099999,43.0833333,5.9333333,"CAP CEPET, FR"
07666099999,42.9166666,3.0666666,"LEUCATE, FR"
07667099999,43.097344,6.146028,"LE PALYVESTRE, FR"
07670099999,43.0,6.2333333,"PORQUEROLLES, FR"
07675099999,43.384672,6.387139,"LE CANNET, FR"
07677099999,43.2,6.6833333,"CAPE CAMARAT, FR"
07678099999,43.0333333,6.4666667,"TOULON ILE DU LEVAN, FR"
07681099999,43.4166666,6.85,"LE DRAMONT, FR"
07684099999,43.54205,6.953478,"MANDELIEU, FR"
07688099999,43.5666667,7.1333333,"LA GAROUPE, FR"
07690099999,43.658411,7.215872,"COTE D AZUR, FR"
07695099999,43.6833333,7.3333333,"CAP FERRAT, FR"
07737099999,42.61,2.1,"FORMIGUERES, FR"
07740099999,42.45,2.0,"SAINT LEOCADIE, FR"
07742099999,43.4333333,2.4166666,"ST MICHEL DE CUXA, FR"
07747099999,42.740442,2.870667,"RIVESALTES, FR"
07749099999,42.5166666,3.1333333,"CAP BEAR, FR"
07752099999,41.9166667,8.6166667,"LA PARATA, FR"
07753099999,42.6333333,8.9166666,"ILE ROUSSE, FR"
07754099999,42.530753,8.793189,"SAINT CATHERINE, FR"
07761099999,41.923637,8.802917,"CAMPO DELL ORO, FR"
07765099999,41.924416,9.406,"SOLENZARA, FR"
07768099999,41.6,9.3666667,"LA CHIAPPA, FR"
07770099999,41.3666666,9.1666666,"CAP PERTUSATO, FR"
07775099999,42.2666666,9.5333333,"ALISTRO, FR"
07780099999,41.500557,9.097777,"SUD CORSE, FR"
07785099999,43.0,9.3666666,"CAP CORSE, FR"
07790099999,42.552664,9.483731,"PORETTA, FR"
07791099999,42.8,9.4833333,"CAPE SAGRO, FR"
07876099999,45.972,6.454167,"LE GRAND BORNAND, FR"
08000199999,32.697889,-16.774453,"MADEIRA, PO"
08001099999,43.3666666,-8.4166666,"LA CORUNA, SP"
08002099999,43.302061,-8.377256,"A CORUNA, SP"
08008099999,43.1166666,-7.45,"LUGO ROZAS, SP"
08011099999,43.563567,-6.034622,"ASTURIAS, SP"
08014099999,43.5666666,-5.7,"GIJON MUSEL, SP"
08014199999,38.9833333,-3.9166667,"CIUDAD REAL, SP"
08014299999,42.2,-1.45,"BARDENAS REALES, SP"
08014499999,37.133222,-3.635694,"ARMILLA, SP"
08015099999,43.35,-5.8666666,"OVIEDO, SP"
08021099999,43.427064,-3.820006,"SANTANDER, SP"
08023099999,43.4833333,-3.8,"SANTANDER, SP"
08025099999,43.301097,-2.910608,"BILBAO, SP"
08027099999,43.3,-2.0333333,"SAN SEBASTIAN IGUELDO, SP"
08029099999,43.356519,-1.790611,"SAN SEBASTIAN, SP"
08042099999,42.896333,-8.415144,"SANTIAGO, SP"
08044099999,42.4333333,-8.6166666,"PONTEVEDRA, SP"
08045099999,42.2318,-8.626775,"VIGO, SP"
08048099999,42.3333333,-7.8666666,"ORENSE, SP"
08053099999,42.5666666,-6.6,"PONFERRADA, SP"
08055099999,42.589,-5.655556,"LEON, SP"
08075099999,42.357628,-3.620764,"BURGOS, SP"
08080099999,42.882836,-2.724469,"VITORIA, SP"
08084099999,42.45,-2.3333333,"LOGRONO AGONCILLO, SP"
08085099999,42.770039,-1.646331,"PAMPLONA, SP"
08094099999,42.0833333,-0.3333333,"HUESCA PIRINEOS, SP"
08130099999,41.5166666,-5.7333333,"ZAMORA, SP"
08140099999,41.706111,-4.851944,"VALLADOLID, SP"
08141099999,41.6333333,-4.75,"VALLADOLID, SP"
08148099999,41.7833333,-2.4833333,"SORIA, SP"
08157099999,41.1166666,-1.4166666,"DAROCA I, SP"
08160099999,41.666242,-1.041553,"ZARAGOZA AB, SP"
08171099999,41.6333333,0.6,"LERIDA, SP"
08175099999,41.147392,1.167172,"REUS, SP"
08176399999,41.5166667,2.1,"SABADELL, SP"
08181099999,41.297078,2.078464,"BARCELONA, SP"
08184099999,41.900969,2.760547,"GIRONA, SP"
08202099999,40.952117,-5.501986,"SALAMANCA, SP"
08210099999,40.6666666,-4.6833333,"AVILA, SP"
08213099999,40.95,-4.1333333,"SEGOVIA, SP"
08215099999,40.8,-4.0166666,"NAVACERRADA PUERTO, SP"
08219099999,40.65,-3.7333333,"MADRI COLMENAR, SP"
08221099999,40.493556,-3.566764,"BARAJAS, SP"
08223099999,40.370678,-3.785144,"CUATRO VIENTOS, SP"
08224099999,40.294139,-3.723833,"GETAFE, SP"
08226099999,40.6666666,-3.1666666,"GUADALAJARA, SP"
08227099999,40.496747,-3.445872,"TORREJON, SP"
08231099999,40.0666666,-2.1333333,"CUENCA, SP"
08232099999,40.85,-1.8833333,"MOLINA DE ARAGON, SP"
08235099999,40.35,-1.1166666,"TERUEL, SP"
08238099999,40.8166666,0.5,"TORTOSA, SP"
08261099999,39.4666666,-6.3333333,"CACERES, SP"
08272099999,39.8833333,-4.05,"TOLEDO, SP"
08280099999,38.948528,-1.863517,"ALBACETE, SP"
08284099999,39.489314,-0.481625,"VALENCIA, SP"
08285099999,39.4833333,-0.3833333,"VALENCIA VIVEROS, SP"
08286099999,39.95,-0.0666666,"CASTELLON ALMAZORA, SP"
08306099999,39.55,2.7333333,"PALMA DE MALLORCA, SP"
08314099999,39.862597,4.218647,"MENORCA, SP"
08330099999,38.89125,-6.821333,"TALAVERA LA REAL, SP"
08348099999,38.9833333,-3.9166666,"CIUDAD REAL, SP"
08359099999,38.3666666,-0.5,"ALICANTE, SP"
08360099999,38.282169,-0.558156,"ALICANTE, SP"
08373099999,38.872858,1.373117,"IBIZA, SP"
08383099999,37.2833333,-6.9166666,"HUELVA, SP"
08390599999,37.3166666,-6.0,"SEVILLA HELIPORT, SP"
08391099999,37.418,-5.893106,"SEVILLA, SP"
08397099999,37.174917,-5.615944,"MORON AB, SP"
08410099999,37.842006,-4.848878,"CORDOBA, SP"
08417099999,37.7833333,-3.8166666,"JAEN, SP"
08419099999,37.188731,-3.777356,"GRANADA, SP"
08429099999,37.951111,-1.230319,"ALCANTARILLA, SP"
08430099999,38.0,-1.1666666,"MURCIA, SP"
08433099999,37.774972,-0.812389,"MURCIA SAN JAVIER, SP"
08449013025,36.65,-6.35,"ROTA NAS, SP"
08451099999,36.744622,-6.060111,"JEREZ, SP"
08451599999,41.72778,0.53583,"LLEIDA ALGUAIRE AIRPORT, SP"
08482099999,36.6749,-4.499106,"MALAGA, SP"
08487099999,36.843936,-2.370097,"ALMERIA, SP"
08495099999,36.151219,-5.349664,"GIBRALTAR, GI"
08501099999,39.455272,-31.131361,"FLORES, PO"
08502099999,39.67,-31.12,"CORVO ISLAND AZORES, PO"
08505099999,38.519894,-28.715872,"HORTA, PO"
08506099999,38.5166666,-28.6333333,"HORTA ACORES, PO"
08509099999,38.761842,-27.090797,"LAJES, PO"
08509599999,38.6655,-28.175817,"SAO JORGE, PO"
08511099999,38.6666666,-27.2166666,"ANGRA DO HEROISMO ACORES, PO"
08512099999,37.741184,-25.69787,"PONTA DELGADA, PO"
08512599999,38.554333,-28.441333,"PICO, PO"
08515099999,36.97139,-25.170639,"SANTA MARIA, PO"
08515599999,39.092169,-28.029847,"GRACIOSA, PO"
08521099999,32.6833333,-16.7666666,"FUNCHAL S.CATARINA, PO"
08522099999,32.6333333,-16.9,"FUNCHAL, PO"
08524099999,33.073386,-16.349975,"PORTO SANTO, PO"
08530099999,39.35,-9.4,"CABO CARVOEIRO, PO"
08531099999,39.35,-9.4,"CABO CARVOEIRO, PO"
08532099999,38.831053,-9.339553,"SINTRA, PO"
08533099999,37.0,-8.95,"SAGRES, PO"
08534099999,38.703861,-9.035916,"MONTIJO, PO"
08535099999,38.7166666,-9.15,"LISBOA GEOF, PO"
08536099999,38.781311,-9.135919,"LISBOA, PO"
08537099999,38.883278,-9.030097,"ALVERCA, PO"
08540099999,39.831244,-8.887261,"MONTE REAL, PO"
08541099999,37.95,-8.8666666,"SINES MONTES CHAOS, PO"
08544099999,40.9166666,-8.6333333,"OVAR MACEDA, PO"
08545099999,41.248055,-8.681389,"PORTO, PO"
08548099999,40.15,-8.4666666,"COIMBRA CERNACHE, PO"
08551099999,41.6333333,-8.8,"VIANA DO CASTELO CHAPE, PO"
08554099999,37.014425,-7.965911,"FARO, PO"
08558099999,38.5333333,-7.9,"EVORA C. COORD, PO"
08558199999,40.915867,-8.645919,"OVAR, PO"
08560099999,40.7166666,-7.8833333,"VISEU, PO"
08561099999,38.0666666,-7.9166666,"BEJA B. AEREA, PO"
08562099999,38.078903,-7.932397,"BEJA, PO"
08567099999,41.274334,-7.720472,"VILA REAL, PO"
08568099999,40.4166666,-7.55,"PENHAS DOURADAS, PO"
08570099999,39.8333333,-7.4833333,"CASTELO BRANCO, PO"
08571099999,39.2833333,-7.4166666,"PORTALEGRE, PO"
08575099999,41.859583,-6.706072,"BRAGANCA, PO"
08579099999,38.7666666,-9.1333333,"LISBOA GAGO COUTINHO, PO"
08583099999,16.8333333,-25.05,"MINDELO, CV"
08589099999,14.9333333,-23.4833333,"PRAIA, CV"
08594099999,16.741389,-22.949444,"AMILCAR CABRAL INTERNATIONAL, CV"
08594499999,16.136531,-22.888897,"BOA VISTA RABIL, CV"
08594599999,16.833889,-25.056667,"SAO PEDRO, CV"
10000199999,51.602414,6.142172,"NIEDERRHEIN, GM"
10018099999,54.91325,8.340472,"WESTERLAND SYLT, GM"
10033099999,54.8333333,9.5,"MEIERWIK, GM"
10037099999,54.459333,9.516333,"SCHLESWIG, GM"
10038099999,54.312167,9.538167,"HOHN, GM"
10046599999,54.3795,10.145167,"KIEL HOLTENAU, GM"
10122099999,53.5335,7.888667,"JEVER, GM"
10126099999,53.547833,7.667333,"WITTMUNDHAFEN, GM"
10136099999,53.767667,8.6585,"NORDHOLZ, GM"
10147099999,53.630389,9.988228,"HAMBURG, GM"
10149099999,53.535886,9.837025,"HAMBURG FINKENWERDER, GM"
10156099999,53.805367,10.719222,"LUBECK BLANKENSEE, GM"
10162499999,53.426997,11.783436,"SCHWERIN PARCHIM, GM"
10172099999,53.918167,12.278333,"LAAGE, GM"
10193599999,53.878706,14.152347,"HERINGSDORF, GM"
10200099999,53.391186,7.227408,"EMDEN, GM"
10224099999,53.0475,8.786667,"BREMEN, GM"
10238099999,52.8166667,9.9333333,"BERGEN MIL, GM"
10246099999,52.919406,10.197528,"FASSBERG, GM"
10281099999,53.602167,13.306,"NEUBRANDENBURG, GM"
10304099999,52.7166667,7.3166667,"MEPPEN MIL, GM"
10306099999,52.291167,7.387,"RHEINE BENTLAGE, GM"
10315099999,52.134642,7.684831,"MUNSTER OSNABRUCK, GM"
10320099999,51.922833,8.306333,"GUTERSLOH, GM"
10321099999,52.585514,8.341014,"DIEPHOLZ, GM"
10334099999,52.457333,9.427167,"WUNSTORF, GM"
10335099999,52.2785,9.082167,"BUCKEBURG, GM"
10338099999,52.461056,9.685078,"HANNOVER, GM"
10343099999,52.5912,10.022133,"CELLE, GM"
10348099999,52.319167,10.556111,"BRAUNSCHWEIG WOLFSBURG, GM"
10382099999,52.559686,13.287711,"TEGEL, GM"
10385099999,52.380001,13.5225,"SCHONEFELD, GM"
10400099999,51.289453,6.766775,"DUSSELDORF, GM"
10404099999,51.75,6.2833333,"KALKAR MIL COMM, GM"
10416099999,51.518314,7.612242,"DORTMUND, GM"
10426099999,51.614089,8.616317,"PADERBORN LIPPSTADT, GM"
10436099999,51.408394,9.377631,"KASSEL CALDEN, GM"
10437499999,51.230356,6.504494,"MONCHENGLADBACH, GM"
10439099999,51.1145,9.285833,"FRITZLAR, GM"
10469099999,51.423992,12.236383,"LEIPZIG HALLE, GM"
10476099999,51.767833,13.167667,"HOLZDORF, GM"
10488099999,51.132767,13.767161,"DRESDEN, GM"
10500099999,50.960817,6.042422,"GEILENKIRCHEN, GM"
10502099999,50.831167,6.658167,"NORVENICH, GM"
10513099999,50.865917,7.142744,"KOLN BONN, GM"
10553699999,50.981817,12.506361,"ALTENBURG NOBITZ, GM"
10554099999,50.979811,10.958106,"ERFURT, GM"
10607099999,49.972667,6.6925,"SPANGDAHLEM AB, GM"
10613099999,50.173833,7.063333,"BUCHEL, GM"
10614099999,49.436911,7.600283,"RAMSTEIN AB, GM"
10616099999,49.948672,7.263892,"FRANKFURT HAHN, GM"
10616299999,50.707658,8.082969,"SIEGERLAND, GM"
10616399999,49.209525,7.400647,"ZWEIBRUCKEN, GM"
10616499999,51.854992,11.418889,"COCHSTEDT, GM"
10618099999,49.7,7.3333333,"IDAR OBERSTEIN MIL, GM"
10632599999,49.960833,8.6415,"EGELSBACH, GM"
10633099999,50.049819,8.325397,"WIESBADEN ARMY AIR FIELD, GM"
10637099999,50.026421,8.543125,"FRANKFURT MAIN, GM"
10685099999,50.288836,11.854919,"HOF PLAUEN, GM"
10687099999,49.698686,11.940175,"GRAFENWOHR ARMY AIR FIELD, GM"
10708099999,49.214553,7.109508,"SAARBRUCKEN, GM"
10712099999,49.5,7.8666667,"SEMBACH USAFB, GM"
10727599999,48.779353,8.0805,"KARLSRUHE BADEN BADEN, GM"
10728099999,49.563569,8.463392,"COLEMAN ARMY AIR FIELD COLEMAN BARRACKS GERMANY, GM"
10729099999,49.472706,8.514264,"MANNHEIM CITY, GM"
10738099999,48.689878,9.221964,"STUTTGART, GM"
10743099999,49.391833,9.958167,"NIEDERSTETTEN, GM"
10752099999,49.473817,10.387831,"ILLESHEIM AHP, GM"
10755099999,49.308219,10.638717,"ANSBACH AHP KATTERBACH GERMANY, GM"
10763099999,49.498644,11.078106,"NURNBERG, GM"
10765099999,49.2175,11.100167,"ROTH, GM"
10771099999,49.4333333,11.9,"KUEMMERSBRUCK, GM"
10775099999,49.218056,11.836111,"HOHENFELS ARMY AIR FIELD, GM"
10805099999,48.36925,7.827722,"LAHR, GM"
10827099999,48.1833333,9.0,"MESSSTETTEN, GM"
10837099999,48.220297,9.910019,"LAUPHEIM, GM"
10852099999,48.425158,10.931764,"AUGSBURG, GM"
10853099999,48.711,11.2115,"NEUBURG, GM"
10856099999,48.1855,10.861167,"LECHFELD, GM"
10857099999,48.070575,10.905994,"LANDSBERG LECH, GM"
10860099999,48.715667,11.534,"INGOLSTADT MANCHING, GM"
10864499999,48.081364,11.283067,"OBERPFAFFENHOFEN, GM"
10866099999,48.353783,11.786086,"MUNCHEN, GM"
10869099999,48.322333,11.948667,"ERDING, GM"
10912099999,47.973331,8.522223,"DONAUESCHINGEN VILLINGEN, GM"
10935099999,47.671317,9.511486,"FRIEDRICHSHAFEN, GM"
10947099999,47.988758,10.2395,"ALLGAU, GM"
10954099999,47.8333333,10.8666667,"ALTENSTADT, GM"
11001099999,48.1,13.6666666,"WOLFSEGG, AU"
11008099999,48.5666666,14.0,"ROHRBACH, AU"
11010099999,48.233219,14.187511,"LINZ, AU"
11012099999,48.05,14.1333333,"KREMSMUENSTER, AU"
11015099999,48.5,14.5,"FREISTADT, AU"
11016199999,47.843333,16.260139,"WIENER NEUSTADT EAST, AU"
11016299999,47.9666667,16.2666667,"LUGPLATZ VOSLAU, AU"
11016399999,47.15,16.3166667,"PUNITZ GUESSING, AU"
11016599999,47.85,16.25,"WIENER NEUSTADT, AU"
11018099999,48.1,14.9,"AMSTETTEN, AU"
11020099999,48.6166666,15.2,"STIFT ZWETTL, AU"
11021099999,48.95,15.0333333,"LITSCHAU, AU"
11022099999,48.7666666,15.95,"RETZ, AU"
11024099999,48.3333333,15.3333333,"JAUERLING, AU"
11027099999,48.4,16.2,"STOCKERAU, AU"
11030099999,48.321083,16.11186,"TULLN, AU"
11032099999,48.6666666,16.6333333,"POYSDORF, AU"
11034099999,48.2,16.3666666,"WIEN INNERE STADT, AU"
11035099999,48.25,16.3666666,"WIEN HOHE WARTE, AU"
11036099999,48.110278,16.569722,"SCHWECHAT, AU"
11037099999,48.2,16.5666666,"GROSSENZERSDORF, AU"
11040099999,48.1333333,16.4166666,"WIEN UNTERLAA, AU"
11051099999,48.2166666,13.0333333,"RANSHOFEN, AU"
11053099999,48.2166666,13.4833333,"RIED IM INNKREIS, AU"
11055099999,48.4666666,13.4333333,"SCHAERDING, AU"
11059099999,48.1666666,14.0666666,"WELS SCHLEISSHEIM, AU"
11060099999,48.3,14.2833333,"LINZ STADT, AU"
11070099999,48.4166666,15.6166666,"KREMS, AU"
11075099999,48.4666667,15.7,"LANGENOIS AUT, AU"
11078099999,48.0333333,15.5833333,"LILIENFELD TARSCHBERG, AU"
11080099999,48.2,16.2333333,"WIEN MARIABRUNN, AU"
11081099999,48.0,16.2333333,"BADEN, AU"
11082099999,48.0333333,16.2833333,"GUMPOLDSKIRCHEN, AU"
11083099999,48.5666666,16.3666666,"LEISER BERGE, AU"
11085099999,48.3333333,16.8333333,"ZWERNDORF MARCHEGG, AU"
11105099999,47.2666666,9.6166666,"FELDKIRCH, AU"
11109099999,47.1333333,10.3166666,"ST ANTON AM ARLBERG, AU"
11110099999,47.1333333,10.2333333,"GALZIG, AU"
11112099999,47.1402778,10.5636111,"LANDECK, AU"
11116099999,47.5,10.75,"REUTTE TIROL, AU"
11119099999,47.3166666,11.1833333,"SEEFELD, AU"
11120099999,47.260219,11.343964,"INNSBRUCK, AU"
11126099999,47.2166666,11.4666666,"PATSCHERKOFEL, AU"
11127099999,46.8666666,11.0333333,"OBERGURGL, AU"
11128099999,47.0,11.5166666,"BRENNER, AU"
11130099999,47.5833333,12.1666666,"KUFSTEIN, AU"
11135099999,47.4166666,12.3666666,"HAHNENKAMM EHRENBACHHOEHE, AU"
11136099999,47.2333333,12.1833333,"KRIMML, AU"
11137099999,47.4,12.9,"MARIA ALM, AU"
11138099999,47.1333333,12.6333333,"ALPINZENTRUM RUDOLFSHUETTE, AU"
11140099999,47.5833333,12.7,"LOFER, AU"
11141099999,47.4,13.2166666,"BISCHOFSHOFEN, AU"
11142099999,47.3166666,13.1833333,"ST. JOHANN PONGAU, AU"
11144099999,47.3333333,12.8,"ZELL AM SEE AUT, AU"
11146099999,47.05,12.95,"SONNBLICK, AU"
11148099999,47.1,13.65,"ST. MICHAEL IM LUNGAU, AU"
11149099999,47.25,13.5666666,"OBERTAUERN, AU"
11150099999,47.793304,13.004333,"SALZBURG, AU"
11152099999,47.9833333,13.1,"MATTSEE, AU"
11153099999,47.85,13.3666666,"MONDSEE, AU"
11154099999,47.9,13.8,"GMUNDEN, AU"
11157099999,47.5333333,14.1333333,"AIGEN ENNSTAL MIL, AU"
11165099999,47.202751,14.744223,"ZELTWEG, AU"
11170099999,47.85,15.0666666,"LUNZ, AU"
11171099999,47.8,15.3,"ST SEBASTIAN MARIAZELL, AU"
11173099999,47.45,15.65,"FISHBACH, AU"
11175099999,47.4166666,15.2666666,"BRUCK MUR, AU"
11180099999,47.7166666,15.7833333,"RAX SEILBAHN BERGSTATION, AU"
11182099999,47.8333333,16.2166666,"WIENER NEUSTADT, AU"
11185099999,47.5166666,16.0333333,"MOENICHKIRCHEN, AU"
11190099999,47.85,16.5333333,"EISENSTADT, AU"
11192099999,47.2,16.3333333,"KLEINZICKEN, AU"
11193099999,47.3333333,16.2166666,"BAD TATZMANNSDORF, AU"
11201099999,46.75,12.4166666,"SILLIAN, AU"
11204099999,46.8333333,12.8166666,"LIENZ, AU"
11213099999,46.6166666,13.8833333,"VILLACH, AU"
11214099999,46.9333333,14.9166666,"PREITENEGG, AU"
11220099999,47.0666666,14.4166666,"NEUMARKT, AU"
11225099999,46.85,14.1833333,"WEITENSFELD, AU"
11227099999,46.7166666,14.1,"FELDKIRCHEN, AU"
11229099999,46.7666666,14.8333333,"ST. ANDRAE I.L., AU"
11231099999,46.65,14.3333333,"KLAGENFURT CIV MIL, AU"
11232099999,46.5666666,14.7666666,"FEISTRITZ OB BLEIBURG, AU"
11234099999,46.5,14.5933333,"BAD EISENKAPPEL, AU"
11240099999,46.991067,15.439628,"GRAZ, AU"
11241099999,47.2,15.4666666,"SCHOECKL, AU"
11244099999,46.8666666,15.9,"BAD GLEICHENBERG, AU"
11248099999,46.6833333,15.9833333,"BAD RADKERSBURG, AU"
11252099999,47.0,12.45,"VIRGEN, AU"
11255099999,46.6833333,13.0,"KOETSCHACH MAUTHEN, AU"
11260099999,47.0,13.1666666,"MALLNITZ BAD, AU"
11261099999,46.9333333,13.2166666,"OBERVELLACH, AU"
11263099999,46.7166666,13.2833333,"WEISSENSEE GATSCHACH, AU"
11265099999,46.6,13.6666666,"VILLACHER ALPE AUTOM, AU"
11270099999,46.7333333,13.0833333,"DELLACH IM DRAUTAL, AU"
11272099999,46.7833333,13.4833333,"SPITTAL DRAU, AU"
11275099999,46.7333333,13.85,"ARRIACH, AU"
11278099999,46.6333333,14.1666666,"POERTSCHACH, AU"
11280099999,47.1166666,14.1833333,"MURAU, AU"
11285099999,46.8166666,15.2333333,"DEUTSCHLANDSBERG, AU"
11290099999,47.0833333,15.45,"GRAZ UNIVERSITAET, AU"
11292099999,47.0666666,15.5833333,"LASSNITZHOEHE, AU"
11298099999,46.9333333,15.8666666,"FELDBACH, AU"
11301099999,47.45,9.85,"ALBERSCHWENDE, AU"
11302099999,47.4333333,9.7333333,"DORNBIRN, AU"
11308099999,47.25,10.1833333,"WARTH, AU"
11310099999,46.9833333,10.3166666,"ISCHGL IDALPE, AU"
11312099999,46.9666666,10.1833333,"GALTUER, AU"
11316099999,46.9333333,10.8833333,"PITZTALER GLETSCHER, AU"
11318099999,46.9166666,10.8666666,"BRUNNENKOGEL OETZTALER ALPEN, AU"
11325099999,47.3833333,11.75,"JENBACH, AU"
11337099999,47.6,12.65,"LOFERER ALM, AU"
11340099999,47.3333333,12.7333333,"SCHMITTENHOEHE, AU"
11342099999,47.1,13.1166666,"BAD GASTEIN BOECKSTEIN, AU"
11343099999,47.05,12.95,"SONNBLICK AUTOM., AU"
11345099999,47.3333333,13.15,"ST VEIT IM PONGAU, AU"
11346099999,47.2166666,13.0,"RAURIS, AU"
11348099999,47.15,13.75,"MARIAPFARR, AU"
11350099999,47.7833333,13.05,"SALZBURG FREISAAL, AU"
11351099999,47.4333333,13.6333333,"RAMSAU DACHSTEIN, AU"
11354099999,47.6333333,13.6166666,"BAD GOISERN, AU"
11355099999,47.7333333,14.3333333,"WINDISCHGARSTEN, AU"
11356099999,47.6166666,13.75,"BAD AUSSEE, AU"
11357099999,47.7333333,13.45,"ST. WOLFGANG, AU"
11358099999,47.55,13.9333333,"BAD MITTERNDORF, AU"
11362099999,47.4166666,14.7666666,"KALWANG, AU"
11365099999,47.2,14.7666666,"ZELTWEG AUTOM. STAT., AU"
11370099999,47.45,15.3,"KAPFENBERG, AU"
11375099999,47.55,15.2333333,"AFLENZ, AU"
11378099999,47.8666666,15.8833333,"GUTENSTEIN MARIAHILFBERG, AU"
11380099999,47.7,15.8333333,"REICHENAU RAX, AU"
11382099999,47.7833333,15.9,"PUCHBERG, AU"
11383099999,47.6166666,15.8166666,"SEMMERING, AU"
11384099999,47.6166666,15.8333333,"HIRSCHENKOGEL, AU"
11385099999,47.8166666,16.0333333,"HOHE WAND HOCHKOGELHAUS, AU"
11387099999,47.9833333,16.5,"SEIBERSDORF, AU"
11389099999,48.1833333,15.6166666,"ST POELTEN LANDHAUS, AU"
11390099999,47.2833333,15.9833333,"HARTBERG, AU"
11393099999,47.4666666,16.6666666,"LUTZMANNSBURG, AU"
11395099999,47.7666666,17.0333333,"ANDAU, AU"
11406099999,50.0666666,12.3833333,"CHEB, EZ"
11414099999,50.202978,12.914983,"KARLOVY VARY, EZ"
11423099999,49.6666666,12.6833333,"PRIMDA, EZ"
11423299999,50.121367,14.543642,"KBELY, EZ"
11423399999,49.029444,17.439722,"KUNOVICE, EZ"
11423499999,50.7666667,15.0166667,"LIBEREC, EZ"
11438099999,50.3833333,13.3333333,"TUSIMICE, EZ"
11448099999,49.675172,13.274617,"PLZEN LINE, EZ"
11450099999,49.7666666,13.3833333,"PLZEN MIKULKA, EZ"
11457099999,49.0666666,13.6166666,"CHURANOV, EZ"
11464099999,50.55,13.9333333,"MILESOVKA, EZ"
11487099999,49.4666666,13.8333333,"KOCELOVICE, EZ"
11502099999,50.6833333,14.0333333,"USTI NAD LABEM, EZ"
11509099999,50.4666666,14.1666666,"DOKSANY, EZ"
11518099999,50.100833,14.26,"RUZYNE, EZ"
11519099999,50.0666666,14.4333333,"PRAHA KARLOV KLEMENTINUM, EZ"
11520099999,50.0,14.45,"PRAHA LIBUS, EZ"
11538099999,49.2,14.35,"TEMELIN, EZ"
11546099999,48.95,14.4666666,"C. BUDEJOVICE ROZNOV, EZ"
11567099999,50.1166666,14.5333333,"PRAHA KBELY, EZ"
11603099999,50.7666666,15.0166666,"LIBEREC, EZ"
11624099999,49.939653,15.381808,"CASLAV, EZ"
11628099999,49.5666666,15.0833333,"KOSETICE, EZ"
11636099999,49.1666666,15.4333333,"KOSTELNI MYSLOVA, EZ"
11643099999,50.7,15.7333333,"PEC POD SNEZKOU, EZ"
11652099999,50.013419,15.738647,"PARDUBICE, EZ"
11653099999,50.7333333,15.7333333,"SNEZKA, EZ"
11659099999,49.5833333,15.7666666,"PRIBYSLAV, EZ"
11679099999,49.9833333,16.4166666,"USTI NAD ORLICI, EZ"
11683099999,49.7333333,16.0333333,"SVRATOUCH, EZ"
11692099999,49.165833,16.124925,"NAMEST, EZ"
11693099999,49.1,16.1333333,"DUKOVANY, EZ"
11698099999,48.8833333,16.0833333,"KUCHAROVICE, EZ"
11710099999,49.65,16.95,"LUKA, EZ"
11723099999,49.151269,16.694433,"TURANY, EZ"
11730099999,50.1833333,17.1166666,"SERAK, EZ"
11748099999,49.425833,17.404722,"PREROV, EZ"
11766099999,49.7833333,17.55,"CERVENA, EZ"
11774099999,49.3166667,17.5666667,"HOLESOV, EZ"
11782099999,49.696292,18.111053,"MOSNOV, EZ"
11787099999,49.55,18.45,"LYSA HORA, EZ"
11816099999,48.170167,17.212667,"M R STEFANIK, LO"
11819099999,48.4833333,17.6666666,"JASLOVSKE BOHUNICE, LO"
11826099999,48.6166666,17.8333333,"PIESTANY, LO"
11841099999,49.2333333,18.6166666,"ZILINA HRICOV, LO"
11855099999,48.2833333,18.1333333,"NITRA, LO"
11856099999,48.2833333,18.45,"MOCHOVCE, LO"
11858099999,47.8666666,18.2,"HURBANOVO, LO"
11867099999,48.7666666,18.6,"PRIEVIDZA, LO"
11880099999,48.1666666,18.8666666,"DUDINCE, LO"
11916099999,48.9833333,19.6,"CHOPOK, LO"
11918099999,49.3666666,19.6833333,"LIESEK, LO"
11927099999,48.3333333,19.7333333,"LUCENEC, LO"
11927199999,48.663055,21.241112,"KOSICE, LO"
11927299999,48.2833333,18.1333333,"NITRA, LO"
11927399999,48.7666667,18.5833333,"PRIEVIDZA, LO"
11927499999,48.625247,17.828444,"PIESTANY, LO"
11927599999,48.637839,19.134108,"SLIAC, LO"
11927699999,49.231528,18.6135,"ZILINA, LO"
11930099999,49.2,20.2166666,"LOMNICKY STIT, LO"
11933099999,48.9333333,22.0,"KAMENICA NAD CIROCHOU, LO"
11934099999,49.073594,20.241142,"TATRY, LO"
11938099999,48.85,20.1833333,"TELGART, LO"
11952099999,49.0333333,20.3166666,"POPRAD GANOVCE, LO"
11958099999,48.7833333,20.9833333,"KOJSOVSKA HOLA, LO"
11968099999,48.6666666,21.2166666,"KOSICE, LO"
11976099999,49.2166666,21.65,"STROPKOV TISINEC, LO"
11978099999,48.6666666,21.7333333,"MILHOSTOV, LO"
11993099999,48.9333333,22.0,"KAMENICA NAD CIROCHOU, LO"
12100099999,54.1833333,15.5833333,"KOLOBRZEG, PL"
12105099999,54.2,16.15,"KOSZALIN, PL"
12105199999,52.268494,20.911047,"BABICE, PL"
12105299999,52.817,18.333,"INOWROCLAW, PL"
12105399999,52.0,19.15,"LECZYCA, PL"
12105499999,51.5333333,20.0166667,"TOMASZOW, PL"
12105599999,51.717,19.4,"LUBLINEK, PL"
12115099999,54.5833333,16.8666666,"USTKA, PL"
12120099999,54.75,17.5333333,"LEBA, PL"
12122099999,54.55,16.62,"WICKO MORSKIE, PL"
12124099999,54.4,16.35,"DARLOWEK, PL"
12125099999,54.55,17.75,"LEBORK, PL"
12135099999,54.6,18.8166666,"HEL, PL"
12136099999,54.4166667,17.7666667,"LEBUNIA, PL"
12140099999,54.4,18.7,"GDANSK PORT PN., PL"
12142099999,54.5666667,18.5166667,"OKSYWIE, PL"
12146099999,54.247972,18.671583,"PRUSZCZ GDANSKI, PL"
12150099999,54.377569,18.466222,"LECHA WALESY, PL"
12160099999,54.2230556,19.5430556,"ELBLAG MILEJEWO, PL"
12185099999,54.0666666,21.3666666,"KETRZYN, PL"
12195099999,54.1333333,22.95,"SUWALKI, PL"
12200099999,53.9166666,14.2333333,"SWINOUJSCIE, PL"
12205099999,53.4,14.6166666,"SZCZECIN, PL"
12210099999,53.7666666,15.4,"RESKO SMOLSKO, PL"
12212099999,53.790639,15.82625,"SWIDWIN, PL"
12215099999,53.7166666,16.7466667,"SZCZECINEK, PL"
12225099999,53.45,16.5,"NADARZYCE, PL"
12226099999,53.395072,16.082814,"MIROSLAWIEC, PL"
12235099999,53.7166666,17.55,"CHOJNICE, PL"
12250099999,53.05,18.5833333,"TORUN, PL"
12270099999,53.1,20.35,"MLAWA, PL"
12272099999,53.7666666,20.4166666,"OLSZTYN, PL"
12280099999,53.7833333,21.5833333,"MIKOLAJKI, PL"
12285099999,53.0833333,21.5666666,"OSTROLEKA, PL"
12295099999,53.1,23.1666666,"BIALYSTOK, PL"
12300099999,52.75,15.2833333,"GORZOW WLKP, PL"
12310099999,52.35,14.6,"SLUBICE, PL"
12312099999,52.138517,15.798556,"BABIMOST, PL"
12326099999,52.331719,16.966428,"KRZESINY, PL"
12330099999,52.421031,16.826325,"LAWICA, PL"
12336099999,52.379444,17.853889,"POWIDZ, PL"
12345099999,52.2,18.6666666,"KOLO, PL"
12360099999,52.5833333,19.7333333,"PLOCK, PL"
12375099999,52.16575,20.967122,"OKECIE, PL"
12376099999,52.195528,21.655917,"MINSK MAZOWIECKI, PL"
12376499999,50.4333333,21.7666666,"NOWA DEBA, PL"
12376599999,54.026944,19.134167,"MALBORK, PL"
12376799999,53.1,17.983,"SZWEDEROWO, PL"
12385099999,52.1811111,22.25,"SIEDLCE, PL"
12399099999,52.0666666,23.6166666,"TERESPOL, PL"
12400099999,51.9333333,15.5333333,"ZIELONA GORA, PL"
12415099999,51.2,16.2,"LEGNICA, PL"
12424099999,51.102683,16.885836,"STRACHOWICE, PL"
12435099999,51.7833333,18.0833333,"KALISZ, PL"
12454099999,51.551667,19.179058,"LASK, PL"
12455099999,51.2166666,18.5666666,"WIELUN, PL"
12469099999,51.35,19.8666666,"SULEJOW, PL"
12488099999,51.5666666,21.55,"KOZIENICE, PL"
12490099999,51.551389,21.893611,"DEBLIN, PL"
12495099999,51.2166666,22.4,"LUBLIN RADAWIEC, PL"
12497099999,51.55,23.5333333,"WLODAWA, PL"
12500099999,50.9,15.8,"JELENIA GORA, PL"
12510099999,50.7333333,15.7333333,"SNIEZKA, PL"
12520099999,50.4333333,16.6166666,"KLODZKO, PL"
12530099999,50.6166666,17.9666666,"OPOLE, PL"
12540099999,50.05,18.2,"RACIBORZ, PL"
12550099999,50.8166666,19.1,"CZESTOCHOWA, PL"
12560099999,50.2333333,19.0333333,"KATOWICE, PL"
12566099999,50.077731,19.784836,"BALICE, PL"
12570099999,50.8166666,20.7,"KIELCE SUKOW, PL"
12575099999,50.0333333,20.9833333,"TARNOW, PL"
12580099999,50.109958,22.019,"JASIONKA, PL"
12585099999,50.7,21.7166666,"SANDOMIERZ, PL"
12595099999,50.7,23.25,"ZAMOSC, PL"
12600099999,49.8,19.0,"BIELSKO BIALA, PL"
12625099999,49.3,19.9666666,"ZAKOPANE, PL"
12650099999,49.2333333,19.9833333,"KASPROWY WIERCH, PL"
12660099999,49.6166666,20.7,"NOWY SACZ, PL"
12670099999,49.7,21.7666666,"KROSNO, PL"
12690099999,49.4666666,22.35,"LESKO, PL"
12695099999,49.8,22.7666666,"PRZEMYSL, PL"
12756099999,48.1166666,19.5166666,"SZECSENY, HU"
12766099999,48.4833333,20.5333333,"JOSVAFO, HU"
12772099999,48.0833333,20.7666667,"MISKOLC, HU"
12786099999,48.4,22.1666666,"ZAHONY, HU"
12805099999,47.6833333,16.6,"SOPRON, HU"
12812099999,47.283333,16.6333333,"SZOMBATHELY AIRPORT VAS, HU"
12815099999,47.8833333,17.2833333,"MOSONMAGYAROVAR, HU"
12822099999,47.7166667,17.6833333,"GYOR, HU"
12825099999,47.363972,17.50075,"PAPA, HU"
12830099999,47.0666666,17.8333333,"VESZPREM SZENTKIRALYSZABADJA, HU"
12836099999,47.65,18.3166666,"TATA, HU"
12839099999,47.436933,19.255592,"FERIHEGY, HU"
12843099999,47.4333333,19.1833333,"BUDAPEST PESTSZENTLORINC, HU"
12846099999,47.1833333,18.6166666,"AGARD, HU"
12847099999,47.75,18.6,"TAT, HU"
12851099999,47.8666666,20.0166666,"KEKESTETO, HU"
12860099999,47.122861,20.2355,"SZOLNOK, HU"
12860599999,46.686389,17.159056,"BALATON, HU"
12866099999,47.65,20.6333333,"POROSZLO, HU"
12870099999,47.9,20.3833333,"EGER, HU"
12882099999,47.488917,21.615331,"DEBRECEN, HU"
12892099999,47.983892,21.692317,"NYIREGYHAZA, HU"
12910099999,46.9166666,16.3166666,"SZENTGOTTHARD FARKASFA, HU"
12915099999,46.8666666,16.8,"ZALAEGERSZEG ANDRASHIDA, HU"
12922099999,46.6833333,17.1666666,"SARMELLEK, HU"
12925099999,46.45,16.9666666,"NAGYKANIZSA, HU"
12930099999,46.3833333,17.8333333,"KAPOSVAR, HU"
12935099999,46.9166667,18.05,"SIOFOK, HU"
12942099999,45.990928,18.240983,"PECS SOUTH, HU"
12950099999,46.5833333,18.85,"PAKS, HU"
12960099999,46.1833333,19.0166666,"BAJA, HU"
12970099999,46.9175,19.749222,"KECSKEMET, HU"
12982099999,46.25,20.1,"SZEGED AUT, HU"
12992099999,46.6833333,21.1666667,"BEKESCSABA, HU"
13014599999,45.899971,15.530194,"CERKLJE, SI"
13067099999,46.1,19.7666666,"PALIC, RI"
13116099999,45.216889,14.570267,"RIJEKA, HR"
13160099999,45.7666666,19.15,"SOMBOR, RI"
13168099999,45.3333333,19.85,"NOVI SAD RIMSKI SANCEVI, RI"
13173099999,45.3666666,20.4166666,"ZRENJANIN, RI"
13174099999,45.85,20.4666666,"KIKINDA, RI"
13180099999,45.05,21.0333333,"BANATSKI KARLOVAC, RI"
13183099999,45.146889,21.309889,"VRSAC, RI"
13242099999,44.941444,17.297501,"BANJA LUKA, BK"
13262099999,44.55,19.2333333,"LOZNICA, RI"
13266099999,45.1,19.55,"SREMSKA MITROVICA, RI"
13269099999,44.3166666,19.9166666,"VALJEVO, RI"
13272099999,44.818444,20.309139,"BEOGRAD, RI"
13272599999,44.935331,20.257506,"BEOGRAD BATAJNICA, RI"
13274099999,44.8,20.4666666,"BEOGRAD, RI"
13278099999,44.0333333,20.9333333,"KRAGUJEVAC, RI"
13279099999,44.3666666,20.95,"SMEDEREVSKA PALANKA, RI"
13285099999,44.75,21.5166666,"VELIKO GRADISTE, RI"
13289099999,44.1166666,21.95,"CRNI VRH, RI"
13295099999,44.2333333,22.55,"NEGOTIN, RI"
13348099999,43.2829,17.845878,"MOSTAR, BK"
13353099999,43.824583,18.331467,"SARAJEVO, BK"
13363099999,43.35,19.35,"PLEVLJA, MJ"
13367099999,43.7333333,19.7166666,"ZLATIBOR, RI"
13369099999,43.2833333,20.0,"SJENICA, RI"
13370099999,43.8333333,20.0333333,"POZEGA UZICKA, RI"
13376099999,43.7,20.7,"KRALJEVO, RI"
13376699999,43.9,19.7,"UZICE PONIKVE, RI"
13378099999,43.2833333,20.8,"KOPAONIK, RI"
13383099999,43.5666666,21.35,"KRUSEVAC, RI"
13384099999,43.9333333,21.3833333,"CUPRIJA, RI"
13388099999,43.337289,21.853722,"NIS, RI"
13389099999,42.9833333,21.95,"LESKOVAC, RI"
13397099999,43.0166666,22.75,"DIMITROVGRAD, RI"
13457099999,42.404664,18.723286,"TIVAT, MJ"
13459099999,42.7666666,18.95,"NIKSIC, MJ"
13461099999,42.1,19.1,"BAR, MJ"
13461599999,41.1,20.8166666,"OHRID AERODROME, MK"
13462099999,42.3666666,19.25,"PODGORICA GOLUBOVCI, MJ"
13462499999,42.4333333,19.2833333,"PODGORICA TITOGRAD, MJ"
13463099999,42.4333333,19.2833333,"PODGORICA GRAD, MJ"
13477099999,42.2166666,20.7333333,"PRIZREN, KV"
13481199999,42.57,21.03,"PRISTINA, KV"
13489099999,42.55,21.9166666,"VRANJE, RI"
13492099999,41.0166666,20.8833333,"POPOVA SAPKA, MK"
13493099999,42.2,22.3333333,"KRIVA PALANKA, MK"
13577099999,41.5333333,20.7,"LAZAROPOLE, MK"
13578099999,41.179956,20.742325,"OHRID, MK"
13583099999,41.05,21.3666666,"BITOLA, MK"
13584099999,41.7333333,21.5166666,"SOLUNSKA GLAVA, MK"
13585099999,41.3333333,21.5666666,"PRILEP, MK"
13586099999,41.961622,21.621381,"SKOPJE, MK"
13591099999,41.75,22.1833333,"STIP, MK"
13592099999,41.4166666,22.25,"DEMIR KAPIJA, MK"
13597099999,41.15,22.5,"GEVGELIJA, MK"
13598099999,41.7166666,22.85,"BEROVO, MK"
13615099999,41.414742,19.720561,"TIRANA RINAS, AL"
14006099999,46.2666666,13.8333333,"VOGEL, SI"
14007099999,46.5,13.7166666,"RATECE, SI"
14008099999,46.3833333,13.85,"KREDARICA, SI"
14009099999,46.0333333,13.9,"VOJSKO, SI"
14010099999,46.3666666,14.1833333,"LESCE, SI"
14012099999,46.1,14.3666666,"KATARINA, SI"
14014099999,46.223686,14.457611,"LJUBLJANA, SI"
14015099999,46.0666666,14.5166666,"LJUBLJANA BEZIGRAD, SI"
14021099999,46.4833333,15.1166666,"SLOVENJ GRADEC, SI"
14023099999,46.2333333,15.2333333,"CELJE, SI"
14024099999,46.0666666,15.2833333,"LISCA, SI"
14026099999,46.479861,15.686131,"MARIBOR, SI"
14031099999,46.65,16.2,"MURSKA SOBOTA, SI"
14105099999,45.473353,13.614978,"PORTOROZ, SI"
14106099999,45.9,13.6333333,"NOVA GORICA, SI"
14112099999,45.7666666,14.2,"POSTOJNA, SI"
14118099999,45.65,14.85,"KOCEVJE, SI"
14120099999,45.5666666,15.15,"CRNOMELJ, SI"
14121099999,45.8,15.1833333,"NOVO MESTO, SI"
14122099999,45.9,15.5166666,"CERKLJE OB KRKI, SI"
14216099999,45.3333333,14.45,"RIJEKA KOZALA, HR"
14219099999,45.6,14.6333333,"PARG, HR"
14232099999,45.5,15.5666666,"KARLOVAC, HR"
14234099999,46.1333333,15.8833333,"KRAPINA, HR"
14235099999,45.9166666,15.9666666,"PUNTIJARKA, HR"
14236099999,45.8,15.9666666,"ZAGREB GRIC, HR"
14240099999,45.8166667,16.0333333,"ZAGREB\MAKSIMIR, HR"
14241099999,45.742931,16.068778,"ZAGREB, HR"
14244099999,45.5,16.3666666,"SISAK, HR"
14246099999,46.294724,16.38125,"VARAZDIN, HR"
14248099999,46.0333333,16.55,"KRIZEVCI, HR"
14253099999,45.9166666,16.8666666,"BJELOVAR, HR"
14253199999,44.5666667,14.4,"LOSINJ ISLAND, HR"
14256099999,45.8833333,17.2,"BILOGORA, HR"
14258099999,45.6,17.2333333,"DARUVAR, HR"
14280099999,45.5,18.5666666,"OSIJEK CEPIN, HR"
14284099999,45.462667,18.810156,"OSIJEK, HR"
14301099999,45.233,13.6,"POREC, HR"
14307099999,44.893533,13.922192,"PULA, HR"
14308099999,45.2333333,13.9333333,"PAZIN, HR"
14314099999,44.5333333,14.4833333,"MALI LOSINJ, HR"
14321099999,44.75,14.7666666,"RAB, HR"
14323099999,45.0,14.9,"SENJ, HR"
14324099999,44.8166666,14.9833333,"ZAVIZAN, HR"
14328099999,45.2666666,15.2333333,"OGULIN, HR"
14330099999,44.55,15.3666666,"GOSPIC, HR"
14370099999,45.1666667,18.0,"SLAVONSKI BROD, HR"
14382099999,45.15,18.7,"GRADISTE, HR"
14428099999,44.1333333,15.2166666,"ZADAR PUNTAMIKA, HR"
14431099999,44.108269,15.346697,"ZADAR, HR"
14438099999,43.7333333,15.9166666,"SIBENIK, HR"
14441099999,43.05,16.1,"KOMIZA, HR"
14442099999,44.0333333,16.2,"KNIN, HR"
14443099999,42.4,16.2666666,"PALAGRUZA, HR"
14444099999,43.538944,16.297964,"SPLIT, HR"
14445099999,43.5166666,16.4333333,"SPLIT MARJAN, HR"
14446099999,43.285719,16.679719,"BRAC, HR"
14447099999,43.1666667,16.45,"HVAR, HR"
14452099999,42.7666666,16.9,"LASTOVO, HR"
14454099999,43.2833333,17.0166666,"MAKARSKA, HR"
14462099999,43.05,17.45,"PLOCE, HR"
14472099999,42.65,18.0833333,"DUBROVNIK GORICA, HR"
14474099999,42.561353,18.268244,"DUBROVNIK, HR"
14528099999,44.8166666,15.8833333,"BIHAC, BK"
14537099999,44.7666666,16.7,"SANSKI MOST, BK"
14542099999,44.7833333,17.2166666,"BANJA LUKA, BK"
14543099999,44.35,17.2666666,"JAJCE, BK"
14544099999,44.0666666,17.4666666,"BUGOJNO, BK"
14549099999,44.2166666,17.9,"ZENICA, BK"
14554099999,44.8833333,18.4333333,"GRADACAC, BK"
14557099999,44.55,18.7,"TUZLA, BK"
14640099999,43.8333333,17.0166667,"LIVNO, BK"
14648099999,43.35,17.8,"MOSTAR, BK"
14650099999,43.7666666,18.0333333,"IVAN SEDLO, BK"
14652099999,43.7166666,18.2666666,"BJELASNICA, BK"
14654099999,43.8666666,18.4333333,"SARAJEVO BJELAVE, BK"
14657099999,42.9166666,17.6,"NEUM, BK"
15000199999,45.21,26.97,"BOBOC AIR BASE, RO"
15000299999,44.3833333,27.7166666,"BORCEA FETESTI AIR BASE, RO"
15010099999,47.703414,22.885606,"SATU MARE, RO"
15014099999,47.658389,23.470022,"TAUTII MAGHERAUS, RO"
15015099999,47.7333333,23.95,"OCNA SUGATAG, RO"
15020099999,47.7333333,26.65,"BOTOSANI, RO"
15023099999,47.6875,26.354056,"STEFAN CEL MARE, RO"
15080099999,47.025278,21.9025,"ORADEA, RO"
15090099999,47.178492,27.620631,"IASI, RO"
15108099999,46.9833333,25.95,"CEAHLAU TOACA, RO"
15120099999,46.785111,23.686167,"CLUJ NAPOCA, RO"
15145099999,46.467714,24.412525,"VIDRASAU, RO"
15150099999,46.521946,26.910278,"BACAU, RO"
15170099999,46.3666666,25.7333333,"MIERCUREA CIUC, RO"
15200099999,46.17655,21.262022,"ARAD, RO"
15230099999,45.8666666,22.9,"DEVA, RO"
15247099999,45.809861,21.337861,"TRAIAN VUIA, RO"
15260099999,45.785597,24.091342,"SIBIU, RO"
15280099999,45.45,25.45,"VARFU OMU, RO"
15292099999,45.42,22.253333,"CARANSEBES, RO"
15310099999,45.4833333,28.0333333,"GALATI, RO"
15335099999,45.062486,28.714311,"CATALOI, RO"
15346099999,45.1,24.3666666,"RAMNICU VALCEA, RO"
15350099999,45.15,26.8166666,"BUZAU, RO"
15360099999,45.1666666,29.7333333,"SULINA, RO"
15410099999,44.6333333,22.6333333,"DROBETA TURNU SEVERIN, RO"
15420099999,44.503194,26.102111,"AUREL VLAICU, RO"
15421099999,44.570992,26.085119,"HENRI COANDA, RO"
15421599999,46.502281,23.885914,"CAMPIA TURZII, RO"
15450099999,44.318139,23.888611,"CRAIOVA, RO"
15460099999,44.2,27.35,"CALARASI, RO"
15470099999,44.1,24.9833333,"ROSIORII DE VEDE, RO"
15480099999,44.2166666,28.65,"CONSTANTA, RO"
